{"totalResultsCount":1088,"geonames":[{"adminCode1":"14","lng":"-9.23083","geonameId":2271772,"bbox":{"east":-9.160391923182,"south":38.69892480168,"north":38.808706275353,"west":-9.3012741839957},"toponymName":"Amadora","countryId":"2264397","fcl":"P","population":178858,"countryCode":"PT","name":"Amadora","fclName":"city, village,...","countryName":"Portugal","fcodeName":"populated place","adminName1":"Lisboa","lat":"38.75382","fcode":"PPL"},{"adminCode1":"14","lng":"-9.25451","geonameId":2264268,"bbox":{"east":-9.2010039873629,"south":38.714870166298,"north":38.798273833702,"west":-9.3080200126371},"toponymName":"Queluz","countryId":"2264397","fcl":"P","population":103399,"countryCode":"PT","name":"Queluz","fclName":"city, village,...","countryName":"Portugal","fcodeName":"populated place","adminName1":"Lisboa","lat":"38.75657","fcode":"PPL"},{"adminCode1":"14","lng":"-9.29793","geonameId":2270503,"bbox":{"east":-9.2469614495307,"south":38.727261122456,"north":38.806690877544,"west":-9.3488905504693},"toponymName":"Cac\u00e9m","countryId":"2264397","fcl":"P","population":93982,"countryCode":"PT","name":"Cac\u00e9m","fclName":"city, village,...","countryName":"Portugal","fcodeName":"populated place","adminName1":"Lisboa","lat":"38.76698","fcode":"PPL"},{"adminCode1":"14","lng":"-9.42146","geonameId":2269594,"bbox":{"east":-9.3898933976726,"south":38.673273278054,"north":38.722533521007,"west":-9.453032627718},"toponymName":"Cascais","countryId":"2264397","fcl":"P","population":36436,"countryCode":"PT","name":"Cascais","fclName":"city, village,...","countryName":"Portugal","fcodeName":"populated place","adminName1":"Lisboa","lat":"38.6979","fcode":"PPL"},{"adminCode1":"14","lng":"-9.1838","geonameId":2265467,"bbox":{"east":-9.1450786927047,"south":38.762528240911,"north":38.822859470833,"west":-9.2225169799027},"toponymName":"Odivelas","countryId":"2264397","fcl":"P","population":54624,"countryCode":"PT","name":"Odivelas","fclName":"city, village,...","countryName":"Portugal","fcodeName":"populated place","adminName1":"Lisboa","lat":"38.79269","fcode":"PPL"},{"adminCode1":"14","lng":"-9.16845","geonameId":2266977,"bbox":{"east":-9.1256196954273,"south":38.797565405586,"north":38.864264089848,"west":-9.2112807772137},"toponymName":"Loures","countryId":"2264397","fcl":"P","population":66231,"countryCode":"PT","name":"Loures","fclName":"city, village,...","countryName":"Portugal","fcodeName":"populated place","adminName1":"Lisboa","lat":"38.83091","fcode":"PPL"},{"adminCode1":"14","lng":"-9.39773","geonameId":2268436,"bbox":{"east":-9.3726060441481,"south":38.686105737939,"north":38.725308143982,"west":-9.422855610515},"toponymName":"Estoril","countryId":"2264397","fcl":"P","population":23700,"countryCode":"PT","name":"Estoril","fclName":"city, village,...","countryName":"Portugal","fcodeName":"populated place","adminName1":"Lisboa","lat":"38.70571","fcode":"PPL"},{"adminCode1":"14","lng":"-9.10801","geonameId":2263667,"bbox":{"east":-9.0864170794625,"south":38.775199296874,"north":38.808850449159,"west":-9.1296015972953},"toponymName":"Sacav\u00e9m","countryId":"2264397","fcl":"P","population":17718,"countryCode":"PT","name":"Sacav\u00e9m","fclName":"city, village,...","countryName":"Portugal","fcodeName":"populated place","adminName1":"Lisboa","lat":"38.79202","fcode":"PPL"},{"adminCode1":"14","lng":"-9.3276","geonameId":2263352,"bbox":{"east":-9.2920613815224,"south":38.673505712849,"north":38.728946287151,"west":-9.3631286184776},"toponymName":"S\u00e3o Domingos de Rana","countryId":"2264397","fcl":"P","population":46718,"countryCode":"PT","name":"S\u00e3o Domingos de Rana","fclName":"city, village,...","countryName":"Portugal","fcodeName":"populated place","adminName1":"Lisboa","lat":"38.70123","fcode":"PPL"},{"adminCode1":"14","lng":"-9.29143","geonameId":2265326,"bbox":{"east":-9.2650187884749,"south":38.675085761466,"north":38.716299837643,"west":-9.3178402508318},"toponymName":"Pa\u00e7o de Arcos","countryId":"2264397","fcl":"P","population":25974,"countryCode":"PT","name":"Pa\u00e7o de Arcos","fclName":"city, village,...","countryName":"Portugal","fcodeName":"populated place","adminName1":"Lisboa","lat":"38.69569","fcode":"PPL"},{"adminCode1":"14","lng":"-9.40928","geonameId":2272215,"bbox":{"east":-9.3793139647227,"south":38.710293815126,"north":38.757026184874,"west":-9.4392420352773},"toponymName":"Alcabideche","countryId":"2264397","fcl":"P","population":33315,"countryCode":"PT","name":"Alcabideche","fclName":"city, village,...","countryName":"Portugal","fcodeName":"populated place","adminName1":"Lisboa","lat":"38.73366","fcode":"PPL"},{"adminCode1":"14","lng":"-9.19935","geonameId":2264526,"bbox":{"east":-9.1741993798854,"south":38.748111796979,"north":38.787314203021,"west":-9.2244926201146},"toponymName":"Pontinha","countryId":"2264397","fcl":"P","population":23249,"countryCode":"PT","name":"Pontinha","fclName":"city, village,...","countryName":"Portugal","fcodeName":"populated place","adminName1":"Lisboa","lat":"38.76771","fcode":"PPL"},{"adminCode1":"14","lng":"-9.22679","geonameId":2270290,"bbox":{"east":-9.2094773386486,"south":38.799718526873,"north":38.826699473127,"west":-9.2441106613514},"toponymName":"Cane\u00e7as","countryId":"2264397","fcl":"P","population":10978,"countryCode":"PT","name":"Cane\u00e7as","fclName":"city, village,...","countryName":"Portugal","fcodeName":"populated place","adminName1":"Lisboa","lat":"38.81321","fcode":"PPL"},{"adminCode1":"14","lng":"-9.12809","geonameId":2270377,"bbox":{"east":-9.1049977824073,"south":38.785592702497,"north":38.821567297503,"west":-9.1511722175927},"toponymName":"Camarate","countryId":"2264397","fcl":"P","population":20177,"countryCode":"PT","name":"Camarate","fclName":"city, village,...","countryName":"Portugal","fcodeName":"populated place","adminName1":"Lisboa","lat":"38.80358","fcode":"PPL"},{"adminCode1":"14","lng":"-9.29833","geonameId":2264403,"bbox":{"east":-9.2792140177335,"south":38.702537720798,"north":38.732366279202,"west":-9.3174519822665},"toponymName":"Porto Salvo","countryId":"2264397","fcl":"P","population":13867,"countryCode":"PT","name":"Porto Salvo","fclName":"city, village,...","countryName":"Portugal","fcodeName":"populated place","adminName1":"Lisboa","lat":"38.71745","fcode":"PPL"},{"adminCode1":"14","lng":"-9.32215","geonameId":2270184,"bbox":{"east":-9.2991001661659,"south":38.673061702497,"north":38.709036297503,"west":-9.3452018338341},"toponymName":"Carcavelos","countryId":"2264397","fcl":"P","population":20366,"countryCode":"PT","name":"Carcavelos","fclName":"city, village,...","countryName":"Portugal","fcodeName":"populated place","adminName1":"Lisboa","lat":"38.69105","fcode":"PPL"},{"adminCode1":"14","lng":"-9.06453","geonameId":2264359,"bbox":{"east":-9.0362276011016,"south":38.838979149633,"north":38.883038850367,"west":-9.0928283988984},"toponymName":"P\u00f3voa de Santa Iria","countryId":"2264397","fcl":"P","population":28901,"countryCode":"PT","name":"P\u00f3voa de Santa Iria","fclName":"city, village,...","countryName":"Portugal","fcodeName":"populated place","adminName1":"Lisboa","lat":"38.86101","fcode":"PPL"},{"adminCode1":"14","lng":"-8.97692","geonameId":2270084,"bbox":{"east":-8.9605413684598,"south":39.010900059961,"north":39.036337940039,"west":-8.9932906315402},"toponymName":"Carregado","countryId":"2264397","fcl":"P","population":10474,"countryCode":"PT","name":"Carregado","fclName":"city, village,...","countryName":"Portugal","fcodeName":"populated place","adminName1":"Lisboa","lat":"39.02362","fcode":"PPL"},{"adminCode1":"14","lng":"-9.19289","geonameId":2270978,"bbox":{"east":-9.1813607922683,"south":38.689751351249,"north":38.707738648751,"west":-9.2044112077317},"toponymName":"Bel\u00e9m","countryId":"2264397","fcl":"P","population":0,"countryCode":"PT","name":"Torre de Bel\u00e9m","fclName":"city, village,...","countryName":"Portugal","fcodeName":"populated place","adminName1":"Lisboa","lat":"38.69875","fcode":"PPL"},{"adminCode1":"19","lng":"-9.18977","geonameId":2262865,"bbox":{"east":-9.1724889703157,"south":38.636117526873,"north":38.663098473127,"west":-9.2070430296843},"toponymName":"Sobreda","countryId":"2264397","fcl":"P","population":11146,"countryCode":"PT","name":"Sobreda","fclName":"city, village,...","countryName":"Portugal","fcodeName":"populated place","adminName1":"Set\u00fabal","lat":"38.64961","fcode":"PPL"},{"adminCode1":"19","lng":"-9.10149","geonameId":2262957,"bbox":{"east":-9.0679954709264,"south":38.418293339255,"north":38.470734872484,"west":-9.134976941183},"toponymName":"Sesimbra","countryId":"2264397","fcl":"P","population":41134,"countryCode":"PT","name":"Sesimbra","fclName":"city, village,...","countryName":"Portugal","fcodeName":"populated place","adminName1":"Set\u00fabal","lat":"38.44451","fcode":"PPL"},{"adminCode1":"19","lng":"-9.15","geonameId":2264736,"bbox":{"east":-9.1269570225861,"south":38.648679702497,"north":38.684654297503,"west":-9.1730429774139},"toponymName":"Piedade","countryId":"2264397","fcl":"P","population":19472,"countryCode":"PT","name":"Piedade","fclName":"city, village,...","countryName":"Portugal","fcodeName":"populated place","adminName1":"Set\u00fabal","lat":"38.66667","fcode":"PPL"},{"adminCode1":"19","lng":"-9.19149","geonameId":2269282,"bbox":{"east":-9.166397083297,"south":38.600988796979,"north":38.640191203021,"west":-9.216586916703},"toponymName":"Charneca","countryId":"2264397","fcl":"P","population":23714,"countryCode":"PT","name":"Charneca","fclName":"city, village,...","countryName":"Portugal","fcodeName":"populated place","adminName1":"Set\u00fabal","lat":"38.62059","fcode":"PPL"},{"adminCode1":"19","lng":"-9.2","geonameId":2270229,"bbox":{"east":-9.1762476588932,"south":38.648125818119,"north":38.685207581881,"west":-9.2237523411068},"toponymName":"Caparica","countryId":"2264397","fcl":"P","population":21167,"countryCode":"PT","name":"Caparica","fclName":"city, village,...","countryName":"Portugal","fcodeName":"populated place","adminName1":"Set\u00fabal","lat":"38.66667","fcode":"PPL"},{"adminCode1":"14","lng":"-9.3276","geonameId":2263827,"bbox":{"east":-9.2888857090226,"south":38.744401385038,"north":38.804732614962,"west":-9.3663042909774},"toponymName":"Rio de Mouro","countryId":"2264397","fcl":"P","population":54695,"countryCode":"PT","name":"Rio de Mouro","fclName":"city, village,...","countryName":"Portugal","fcodeName":"populated place","adminName1":"Lisboa","lat":"38.77457","fcode":"PPL"},{"adminCode1":"14","lng":"-9.41563","geonameId":2268563,"bbox":{"east":-9.4014582176588,"south":38.951730849845,"north":38.973760700212,"west":-9.429794834099},"toponymName":"Ericeira","countryId":"2264397","fcl":"P","population":7538,"countryCode":"PT","name":"Ericeira","fclName":"city, village,...","countryName":"Portugal","fcodeName":"populated place","adminName1":"Lisboa","lat":"38.96275","fcode":"PPL"},{"adminCode1":"14","lng":"-9.44691","geonameId":2269142,"bbox":{"east":-9.4327742747129,"south":38.788200074817,"north":38.810229925183,"west":-9.4610457252871},"toponymName":"Colares","countryId":"2264397","fcl":"P","population":7905,"countryCode":"PT","name":"Colares","fclName":"city, village,...","countryName":"Portugal","fcodeName":"populated place","adminName1":"Lisboa","lat":"38.79921","fcode":"PPL"},{"adminCode1":"14","lng":"-9.08423","geonameId":2261732,"bbox":{"east":-9.0726400236343,"south":39.117966351249,"north":39.135953648751,"west":-9.0958299763657},"toponymName":"Ventosa","countryId":"2264397","fcl":"P","population":5215,"countryCode":"PT","name":"Ventosa","fclName":"city, village,...","countryName":"Portugal","fcodeName":"populated place","adminName1":"Lisboa","lat":"39.12696","fcode":"PPL"},{"adminCode1":"14","lng":"-9.11885","geonameId":2270649,"bbox":{"east":-9.1088385384575,"south":38.894140271709,"north":38.909717728291,"west":-9.1288574615425},"toponymName":"Bucelas","countryId":"2264397","fcl":"P","population":4614,"countryCode":"PT","name":"Bucelas","fclName":"city, village,...","countryName":"Portugal","fcodeName":"populated place","adminName1":"Lisboa","lat":"38.90193","fcode":"PPL"},{"adminCode1":"14","lng":"-8.89932","geonameId":2271350,"bbox":{"east":-8.889280059112,"south":39.130168271709,"north":39.145745728291,"west":-8.909365940888},"toponymName":"Aveiras de Cima","countryId":"2264397","fcl":"P","population":4615,"countryCode":"PT","name":"Aveiras de Cima","fclName":"city, village,...","countryName":"Portugal","fcodeName":"populated place","adminName1":"Lisboa","lat":"39.13796","fcode":"PPL"},{"adminCode1":"14","lng":"-9.00864","geonameId":2271975,"bbox":{"east":-8.9944787727717,"south":38.916305074817,"north":38.938334925183,"west":-9.0228012272283},"toponymName":"Alhandra","countryId":"2264397","fcl":"P","population":7226,"countryCode":"PT","name":"Alhandra","fclName":"city, village,...","countryName":"Portugal","fcodeName":"populated place","adminName1":"Lisboa","lat":"38.92732","fcode":"PPL"},{"adminCode1":"14","lng":"-9.10674","geonameId":2265432,"bbox":{"east":-9.0951982958798,"south":38.760943351249,"north":38.778930648751,"west":-9.1182717041202},"toponymName":"Olivais","countryId":"2264397","fcl":"P","population":0,"countryCode":"PT","name":"Olivais","fclName":"city, village,...","countryName":"Portugal","fcodeName":"populated place","adminName1":"Lisboa","lat":"38.76994","fcode":"PPL"},{"adminCode1":"14","lng":"-9.08748","geonameId":2263523,"bbox":{"east":-9.0651176556772,"south":38.828871874082,"north":38.863704125918,"west":-9.1098523443228},"toponymName":"Santa Iria da Az\u00f3ia","countryId":"2264397","fcl":"P","population":18573,"countryCode":"PT","name":"Santa Iria da Az\u00f3ia","fclName":"city, village,...","countryName":"Portugal","fcodeName":"populated place","adminName1":"Lisboa","lat":"38.84629","fcode":"PPL"},{"adminCode1":"14","lng":"-8.97346","geonameId":2269556,"bbox":{"east":-8.9592876389967,"south":38.981963074817,"north":39.003992925183,"west":-8.9876363610033},"toponymName":"Castanheira do Ribatejo","countryId":"2264397","fcl":"P","population":7651,"countryCode":"PT","name":"Castanheira do Ribatejo","fclName":"city, village,...","countryName":"Portugal","fcodeName":"populated place","adminName1":"Lisboa","lat":"38.99298","fcode":"PPL"},{"adminCode1":"14","lng":"-9.2972","geonameId":2272379,"bbox":{"east":-9.2842305454281,"south":39.142314795013,"north":39.162425204987,"west":-9.310167454572},"toponymName":"A dos Cunhados","countryId":"2264397","fcl":"P","population":6594,"countryCode":"PT","name":"A dos Cunhados","fclName":"city, village,...","countryName":"Portugal","fcodeName":"populated place","adminName1":"Lisboa","lat":"39.15237","fcode":"PPL"},{"adminCode1":"19","lng":"-9.16981","geonameId":2264341,"bbox":{"east":-9.1556949279345,"south":38.663577074817,"north":38.685606925183,"west":-9.1839170720655},"toponymName":"Pragal","countryId":"2264397","fcl":"P","population":7701,"countryCode":"PT","name":"Pragal","fclName":"city, village,...","countryName":"Portugal","fcodeName":"populated place","adminName1":"Set\u00fabal","lat":"38.67459","fcode":"PPL"},{"adminCode1":"19","lng":"-9.14663","geonameId":2270486,"bbox":{"east":-9.1337422201673,"south":38.677670795013,"north":38.697781204987,"west":-9.1595097798327},"toponymName":"Cacilhas","countryId":"2264397","fcl":"P","population":6494,"countryCode":"PT","name":"Cacilhas","fclName":"city, village,...","countryName":"Portugal","fcodeName":"populated place","adminName1":"Set\u00fabal","lat":"38.68773","fcode":"PPL"},{"adminCode1":"19","lng":"-9.23268","geonameId":2262544,"bbox":{"east":-9.2211580644321,"south":38.663231351249,"north":38.681218648751,"west":-9.2441999355679},"toponymName":"Trafaria","countryId":"2264397","fcl":"P","population":5603,"countryCode":"PT","name":"Trafaria","fclName":"city, village,...","countryName":"Portugal","fcodeName":"populated place","adminName1":"Set\u00fabal","lat":"38.67222","fcode":"PPL"},{"adminCode1":"14","lng":"-9.28333","geonameId":2266621,"bbox":{"east":-9.2717998194981,"south":38.741006351248,"north":38.758993648752,"west":-9.2948667805019},"toponymName":"Massam\u00e1","countryId":"2264397","fcl":"P","population":0,"countryCode":"PT","name":"Massam\u00e1","fclName":"city, village,...","countryName":"Portugal","fcodeName":"populated place","adminName1":"Lisboa","lat":"38.75","fcode":"PPL"},{"adminCode1":"14","lng":"-9.15601","geonameId":2266940,"bbox":{"east":-9.1444705129784,"south":38.765782351249,"north":38.783769648751,"west":-9.1675454870216},"toponymName":"Lumiar","countryId":"2264397","fcl":"P","population":0,"countryCode":"PT","name":"Lumiar","fclName":"city, village,...","countryName":"Portugal","fcodeName":"populated place","adminName1":"Lisboa","lat":"38.77478","fcode":"PPL"},{"adminCode1":"14","lng":"-9.2422","geonameId":2267067,"bbox":{"east":-9.2184337751822,"south":38.695919118119,"north":38.733000881881,"west":-9.2659702248178},"toponymName":"Linda-a-Velha","countryId":"2264397","fcl":"P","population":20895,"countryCode":"PT","name":"Linda-a-Velha","fclName":"city, village,...","countryName":"Portugal","fcodeName":"populated place","adminName1":"Lisboa","lat":"38.71446","fcode":"PPL"},{"adminCode1":"14","lng":"-9.27666","geonameId":2269449,"bbox":{"east":-9.2651370838844,"south":38.694145351249,"north":38.712132648751,"west":-9.2881889161156},"toponymName":"Caxias","countryId":"2264397","fcl":"P","population":0,"countryCode":"PT","name":"Caxias","fclName":"city, village,...","countryName":"Portugal","fcodeName":"populated place","adminName1":"Lisboa","lat":"38.70314","fcode":"PPL"},{"adminCode1":"14","lng":"-9.24671","geonameId":2270157,"bbox":{"east":-9.2215817030166,"south":38.707462796979,"north":38.746665203021,"west":-9.2718462969835},"toponymName":"Carnaxide","countryId":"2264397","fcl":"P","population":23698,"countryCode":"PT","name":"Carnaxide","fclName":"city, village,...","countryName":"Portugal","fcodeName":"populated place","adminName1":"Lisboa","lat":"38.72706","fcode":"PPL"},{"adminCode1":"14","lng":"-9.16486","geonameId":2270338,"bbox":{"east":-9.153332837919,"south":38.720462351249,"north":38.738449648751,"west":-9.176393162081},"toponymName":"Campolide","countryId":"2264397","fcl":"P","population":0,"countryCode":"PT","name":"Campolide","fclName":"city, village,...","countryName":"Portugal","fcodeName":"populated place","adminName1":"Lisboa","lat":"38.72946","fcode":"PPL"},{"adminCode1":"14","lng":"-9.13333","geonameId":2271547,"bbox":{"east":-9.1218025118885,"south":38.724339651249,"north":38.742326948751,"west":-9.1448640881115},"toponymName":"Areeiro","countryId":"2264397","fcl":"P","population":0,"countryCode":"PT","name":"Areeiro","fclName":"city, village,...","countryName":"Portugal","fcodeName":"populated place","adminName1":"Lisboa","lat":"38.73333","fcode":"PPL"},{"adminCode1":"14","lng":"-9.14066","geonameId":6930126,"bbox":{"east":-9.1291300299969,"south":38.701837042928,"north":38.719824340432,"west":-9.1521843430195},"toponymName":"Chiado","countryId":"2264397","fcl":"P","population":0,"countryCode":"PT","name":"Chiado","fclName":"city, village,...","countryName":"Portugal","fcodeName":"populated place","adminName1":"Lisboa","lat":"38.71083","fcode":"PPL"},{"adminCode1":"14","lng":"-9.14411","geonameId":6930127,"bbox":{"east":-9.1325845423617,"south":38.702908630635,"north":38.720895928138,"west":-9.1556392010771},"toponymName":"Bairro Alto","countryId":"2264397","fcl":"P","population":0,"countryCode":"PT","name":"Bairro Alto","fclName":"city, village,...","countryName":"Portugal","fcodeName":"populated place","adminName1":"Lisboa","lat":"38.7119","fcode":"PPL"},{"adminCode1":"14","lng":"-9.13975","geonameId":2263434,"bbox":{"east":-9.1297476392503,"south":38.843721271709,"north":38.859298728291,"west":-9.1497523607497},"toponymName":"Santo Ant\u00e3o do Tojal","countryId":"2264397","fcl":"P","population":4156,"countryCode":"PT","name":"Santo Ant\u00e3o do Tojal","fclName":"city, village,...","countryName":"Portugal","fcodeName":"populated place","adminName1":"Lisboa","lat":"38.85151","fcode":"PPL"},{"adminCode1":"14","lng":"-9.30282","geonameId":2263884,"bbox":{"east":-9.2912280868037,"south":39.075028351249,"north":39.093015648751,"west":-9.3144039131963},"toponymName":"Ribeira de Pedrulhos","countryId":"2264397","fcl":"P","population":0,"countryCode":"PT","name":"Ribeira de Pedrulhos","fclName":"city, village,...","countryName":"Portugal","fcodeName":"populated place","adminName1":"Lisboa","lat":"39.08402","fcode":"PPL"},{"adminCode1":"14","lng":"-9.09621","geonameId":2263921,"bbox":{"east":-9.0846295508398,"south":39.053936351249,"north":39.071923648751,"west":-9.1077984491602},"toponymName":"Ribafria","countryId":"2264397","fcl":"P","population":0,"countryCode":"PT","name":"Ribafria","fclName":"city, village,...","countryName":"Portugal","fcodeName":"populated place","adminName1":"Lisboa","lat":"39.06293","fcode":"PPL"},{"adminCode1":"14","lng":"-8.99105","geonameId":2265394,"bbox":{"east":-8.9794574880349,"south":39.102995351249,"north":39.120982648751,"west":-9.0026425119651},"toponymName":"Ota","countryId":"2264397","fcl":"P","population":0,"countryCode":"PT","name":"Ota","fclName":"city, village,...","countryName":"Portugal","fcodeName":"populated place","adminName1":"Lisboa","lat":"39.11199","fcode":"PPL"},{"adminCode1":"14","lng":"-9.06545","geonameId":2265448,"bbox":{"east":-9.0538636358669,"south":39.089938351249,"north":39.107925648751,"west":-9.0770443641331},"toponymName":"Olhalvo","countryId":"2264397","fcl":"P","population":0,"countryCode":"PT","name":"Olhalvo","fclName":"city, village,...","countryName":"Portugal","fcodeName":"populated place","adminName1":"Lisboa","lat":"39.09893","fcode":"PPL"},{"adminCode1":"14","lng":"-9.28238","geonameId":2265589,"bbox":{"east":-9.2707716826588,"south":39.229036351249,"north":39.247023648751,"west":-9.2939983173412},"toponymName":"Nadrupe","countryId":"2264397","fcl":"P","population":0,"countryCode":"PT","name":"Nadrupe","fclName":"city, village,...","countryName":"Portugal","fcodeName":"populated place","adminName1":"Lisboa","lat":"39.23803","fcode":"PPL"},{"adminCode1":"14","lng":"-9.21123","geonameId":2266597,"bbox":{"east":-9.1996416843549,"south":39.083561351249,"north":39.101548648751,"west":-9.2228203156451},"toponymName":"Matac\u00e3es","countryId":"2264397","fcl":"P","population":0,"countryCode":"PT","name":"Matac\u00e3es","fclName":"city, village,...","countryName":"Portugal","fcodeName":"populated place","adminName1":"Lisboa","lat":"39.09255","fcode":"PPL"},{"adminCode1":"14","lng":"-9.14359","geonameId":2267837,"bbox":{"east":-9.1320461579073,"south":38.817351351248,"north":38.835338648752,"west":-9.1551378420927},"toponymName":"Frielas","countryId":"2264397","fcl":"P","population":0,"countryCode":"PT","name":"Frielas","fclName":"city, village,...","countryName":"Portugal","fcodeName":"populated place","adminName1":"Lisboa","lat":"38.82635","fcode":"PPL"},{"adminCode1":"14","lng":"-9.43942","geonameId":2268126,"bbox":{"east":-9.427869632466,"south":38.839071351249,"north":38.857058648751,"west":-9.450968367534},"toponymName":"Fontanelas","countryId":"2264397","fcl":"P","population":0,"countryCode":"PT","name":"Fontanelas","fclName":"city, village,...","countryName":"Portugal","fcodeName":"populated place","adminName1":"Lisboa","lat":"38.84806","fcode":"PPL"},{"adminCode1":"14","lng":"-9.14142","geonameId":2269280,"bbox":{"east":-9.1298773261969,"south":38.779292351249,"north":38.797279648751,"west":-9.1529566738031},"toponymName":"Charneca","countryId":"2264397","fcl":"P","population":0,"countryCode":"PT","name":"Charneca","fclName":"city, village,...","countryName":"Portugal","fcodeName":"populated place","adminName1":"Lisboa","lat":"38.78829","fcode":"PPL"},{"adminCode1":"14","lng":"-9.34581","geonameId":2269675,"bbox":{"east":-9.3342142806516,"south":39.092098351249,"north":39.110085648751,"west":-9.3573957193484},"toponymName":"Casalinhos de Alfaiata","countryId":"2264397","fcl":"P","population":0,"countryCode":"PT","name":"Casalinhos de Alfaiata","fclName":"city, village,...","countryName":"Portugal","fcodeName":"populated place","adminName1":"Lisboa","lat":"39.10109","fcode":"PPL"},{"adminCode1":"14","lng":"-8.88575","geonameId":2262029,"bbox":{"east":-8.8741559453036,"south":39.106293351249,"north":39.124280648751,"west":-8.8973420546964},"toponymName":"Vale do Para\u00edso","countryId":"2264397","fcl":"P","population":0,"countryCode":"PT","name":"Vale do Para\u00edso","fclName":"city, village,...","countryName":"Portugal","fcodeName":"populated place","adminName1":"Lisboa","lat":"39.11529","fcode":"PPL"},{"adminCode1":"14","lng":"-9.06604","geonameId":2270144,"bbox":{"east":-9.0544565978918,"south":39.029266351249,"north":39.047253648751,"west":-9.0776174021082},"toponymName":"Carnota","countryId":"2264397","fcl":"P","population":0,"countryCode":"PT","name":"Carnota","fclName":"city, village,...","countryName":"Portugal","fcodeName":"populated place","adminName1":"Lisboa","lat":"39.03826","fcode":"PPL"},{"adminCode1":"14","lng":"-9.23519","geonameId":2270357,"bbox":{"east":-9.2235875053007,"south":39.187791351249,"north":39.205778648751,"west":-9.2468004946993},"toponymName":"Campelos","countryId":"2264397","fcl":"P","population":0,"countryCode":"PT","name":"Campelos","fclName":"city, village,...","countryName":"Portugal","fcodeName":"populated place","adminName1":"Lisboa","lat":"39.19678","fcode":"PPL"},{"adminCode1":"14","lng":"-9.00419","geonameId":2270479,"bbox":{"east":-8.9926111100739,"south":38.995616351248,"north":39.013603648752,"west":-9.0157608899261},"toponymName":"Cadafais","countryId":"2264397","fcl":"P","population":0,"countryCode":"PT","name":"Cadafais","fclName":"city, village,...","countryName":"Portugal","fcodeName":"populated place","adminName1":"Lisboa","lat":"39.00461","fcode":"PPL"},{"adminCode1":"14","lng":"-9.06588","geonameId":2270607,"bbox":{"east":-9.0542782695645,"south":39.146815351249,"north":39.164802648751,"west":-9.0774777304355},"toponymName":"Cabanas de Torres","countryId":"2264397","fcl":"P","population":0,"countryCode":"PT","name":"Cabanas de Torres","fclName":"city, village,...","countryName":"Portugal","fcodeName":"populated place","adminName1":"Lisboa","lat":"39.15581","fcode":"PPL"},{"adminCode1":"14","lng":"-9.05479","geonameId":2271077,"bbox":{"east":-9.0431759278829,"south":39.257730351249,"north":39.275717648751,"west":-9.0664120721171},"toponymName":"Barreiras","countryId":"2264397","fcl":"P","population":0,"countryCode":"PT","name":"Barreiras","fclName":"city, village,...","countryName":"Portugal","fcodeName":"populated place","adminName1":"Lisboa","lat":"39.26672","fcode":"PPL"},{"adminCode1":"14","lng":"-9.28875","geonameId":2271266,"bbox":{"east":-9.2771717223117,"south":38.997985351249,"north":39.015972648751,"west":-9.3003222776883},"toponymName":"Azueira","countryId":"2264397","fcl":"P","population":0,"countryCode":"PT","name":"Azueira","fclName":"city, village,...","countryName":"Portugal","fcodeName":"populated place","adminName1":"Lisboa","lat":"39.00698","fcode":"PPL"},{"adminCode1":"14","lng":"-9.47664","geonameId":2271271,"bbox":{"east":-9.4651003370869,"south":38.766869351249,"north":38.784856648751,"west":-9.4881756629131},"toponymName":"Azoia","countryId":"2264397","fcl":"P","population":0,"countryCode":"PT","name":"Azoia","fclName":"city, village,...","countryName":"Portugal","fcodeName":"populated place","adminName1":"Lisboa","lat":"38.77586","fcode":"PPL"},{"adminCode1":"14","lng":"-9.4583","geonameId":2271307,"bbox":{"east":-9.4467487491072,"south":38.832194351249,"north":38.850181648751,"west":-9.4698452508928},"toponymName":"Azenhas do Mar","countryId":"2264397","fcl":"P","population":0,"countryCode":"PT","name":"Azenhas do Mar","fclName":"city, village,...","countryName":"Portugal","fcodeName":"populated place","adminName1":"Lisboa","lat":"38.84119","fcode":"PPL"},{"adminCode1":"14","lng":"-9.13465","geonameId":2271483,"bbox":{"east":-9.1230854196497,"south":38.944782351248,"north":38.962769648752,"west":-9.1462185803503},"toponymName":"Arranh\u00f3","countryId":"2264397","fcl":"P","population":0,"countryCode":"PT","name":"Arranh\u00f3","fclName":"city, village,...","countryName":"Portugal","fcodeName":"populated place","adminName1":"Lisboa","lat":"38.95378","fcode":"PPL"},{"adminCode1":"14","lng":"-9.47101","geonameId":2271914,"bbox":{"east":-9.4594669533261,"south":38.787769351249,"north":38.805756648751,"west":-9.4825490466739},"toponymName":"Almo\u00e7ageme","countryId":"2264397","fcl":"P","population":0,"countryCode":"PT","name":"Almo\u00e7ageme","fclName":"city, village,...","countryName":"Portugal","fcodeName":"populated place","adminName1":"Lisboa","lat":"38.79676","fcode":"PPL"},{"adminCode1":"14","lng":"-9.02186","geonameId":2271978,"bbox":{"east":-9.0102361786356,"south":39.268276351249,"north":39.286263648751,"west":-9.0334758213644},"toponymName":"Alguber","countryId":"2264397","fcl":"P","population":0,"countryCode":"PT","name":"Alguber","fclName":"city, village,...","countryName":"Portugal","fcodeName":"populated place","adminName1":"Lisboa","lat":"39.27727","fcode":"PPL"},{"adminCode1":"14","lng":"-9.09534","geonameId":2272066,"bbox":{"east":-9.0837521282123,"south":39.074776351249,"north":39.092763648751,"west":-9.1069278717877},"toponymName":"Aldeia Gavinha","countryId":"2264397","fcl":"P","population":0,"countryCode":"PT","name":"Aldeia Gavinha","fclName":"city, village,...","countryName":"Portugal","fcodeName":"populated place","adminName1":"Lisboa","lat":"39.08377","fcode":"PPL"},{"adminCode1":"14","lng":"-9.11254","geonameId":2272067,"bbox":{"east":-9.1009534073779,"south":39.073077351248,"north":39.091064648752,"west":-9.1241285926221},"toponymName":"Aldeia Galega da Merceana","countryId":"2264397","fcl":"P","population":0,"countryCode":"PT","name":"Aldeia Galega da Merceana","fclName":"city, village,...","countryName":"Portugal","fcodeName":"populated place","adminName1":"Lisboa","lat":"39.08207","fcode":"PPL"},{"adminCode1":"14","lng":"-9.01853","geonameId":2272446,"bbox":{"east":-9.0069301898795,"south":39.135167351249,"north":39.153154648751,"west":-9.0301258101205},"toponymName":"Abrigada","countryId":"2264397","fcl":"P","population":0,"countryCode":"PT","name":"Abrigada","fclName":"city, village,...","countryName":"Portugal","fcodeName":"populated place","adminName1":"Lisboa","lat":"39.14416","fcode":"PPL"},{"adminCode1":"14","lng":"-9.30572","geonameId":2272472,"bbox":{"east":-9.2941004800714,"south":39.272486351248,"north":39.290473648752,"west":-9.3173415199286},"toponymName":"Abelheira","countryId":"2264397","fcl":"P","population":0,"countryCode":"PT","name":"Abelheira","fclName":"city, village,...","countryName":"Portugal","fcodeName":"populated place","adminName1":"Lisboa","lat":"39.28148","fcode":"PPL"},{"adminCode1":"14","lng":"-9.125","geonameId":6620294,"bbox":{"east":-9.1134638712914,"south":38.780957337514,"north":38.798944635017,"west":-9.1365437581031},"toponymName":"Prior Velho","countryId":"2264397","fcl":"P","population":0,"countryCode":"PT","name":"Prior Velho","fclName":"city, village,...","countryName":"Portugal","fcodeName":"populated place","adminName1":"Lisboa","lat":"38.78995","fcode":"PPL"},{"adminCode1":"19","lng":"-9.20369","geonameId":2264445,"bbox":{"east":-9.192166481289,"south":38.666853351249,"north":38.684840648751,"west":-9.215209518711},"toponymName":"Porto Brand\u00e3o","countryId":"2264397","fcl":"P","population":0,"countryCode":"PT","name":"Porto Brand\u00e3o","fclName":"city, village,...","countryName":"Portugal","fcodeName":"populated place","adminName1":"Set\u00fabal","lat":"38.67585","fcode":"PPL"},{"adminCode1":"19","lng":"-9.2","geonameId":2271173,"bbox":{"east":-9.1884799591164,"south":38.657673051249,"north":38.675660348751,"west":-9.2115200408836},"toponymName":"Banatica","countryId":"2264397","fcl":"P","population":0,"countryCode":"PT","name":"Banatica","fclName":"city, village,...","countryName":"Portugal","fcodeName":"populated place","adminName1":"Set\u00fabal","lat":"38.66667","fcode":"PPL"},{"adminCode1":"19","lng":"-9.19098","geonameId":2271272,"bbox":{"east":-9.1794997257504,"south":38.421632351249,"north":38.439619648751,"west":-9.2024642742496},"toponymName":"Azoia","countryId":"2264397","fcl":"P","population":0,"countryCode":"PT","name":"Azoia","fclName":"city, village,...","countryName":"Portugal","fcodeName":"populated place","adminName1":"Set\u00fabal","lat":"38.43063","fcode":"PPL"},{"adminCode1":"14","lng":"-9.28","geonameId":2271140,"bbox":{"east":-9.2627009425064,"south":38.718959526873,"north":38.745940473127,"west":-9.2972950574936},"toponymName":"Barcarena","countryId":"2264397","fcl":"P","population":11968,"countryCode":"PT","name":"Barcarena","fclName":"city, village,...","countryName":"Portugal","fcodeName":"populated place","adminName1":"Lisboa","lat":"38.73245","fcode":"PPL"},{"adminCode1":"14","lng":"-9.19216","geonameId":2264087,"bbox":{"east":-9.1705656095598,"south":38.785528423858,"north":38.819179576142,"west":-9.2137563904402},"toponymName":"Ramada","countryId":"2264397","fcl":"P","population":17535,"countryCode":"PT","name":"Ramada","fclName":"city, village,...","countryName":"Portugal","fcodeName":"populated place","adminName1":"Lisboa","lat":"38.80235","fcode":"PPL"},{"adminCode1":"14","lng":"-9.10222","geonameId":2265726,"bbox":{"east":-9.0849145824084,"south":38.765797526873,"north":38.792778473127,"west":-9.1195314175917},"toponymName":"Moscavide","countryId":"2264397","fcl":"P","population":11488,"countryCode":"PT","name":"Moscavide","fclName":"city, village,...","countryName":"Portugal","fcodeName":"populated place","adminName1":"Lisboa","lat":"38.77929","fcode":"PPL"},{"adminCode1":"14","lng":"-9.41274","geonameId":2265757,"bbox":{"east":-9.4011944770199,"south":38.809218351249,"north":38.827205648751,"west":-9.4242835229801},"toponymName":"Morelinho","countryId":"2264397","fcl":"P","population":0,"countryCode":"PT","name":"Morelinho","fclName":"city, village,...","countryName":"Portugal","fcodeName":"populated place","adminName1":"Lisboa","lat":"38.81821","fcode":"PPL"},{"adminCode1":"14","lng":"-9.10496","geonameId":2261708,"bbox":{"east":-9.0933444134547,"south":39.260832351249,"north":39.278819648751,"west":-9.1165815865453},"toponymName":"Vermelha","countryId":"2264397","fcl":"P","population":0,"countryCode":"PT","name":"Vermelha","fclName":"city, village,...","countryName":"Portugal","fcodeName":"populated place","adminName1":"Lisboa","lat":"39.26983","fcode":"PPL"},{"adminCode1":"14","lng":"-9.12231","geonameId":2262465,"bbox":{"east":-9.1059779638763,"south":38.813168059961,"north":38.838605940039,"west":-9.1386360361237},"toponymName":"Unhos","countryId":"2264397","fcl":"P","population":10712,"countryCode":"PT","name":"Unhos","fclName":"city, village,...","countryName":"Portugal","fcodeName":"populated place","adminName1":"Lisboa","lat":"38.82589","fcode":"PPL"},{"adminCode1":"14","lng":"-9.26078","geonameId":2270981,"bbox":{"east":-9.2369928626331,"south":38.758671118119,"north":38.795752881881,"west":-9.2845711373669},"toponymName":"Belas","countryId":"2264397","fcl":"P","population":21019,"countryCode":"PT","name":"Belas","fclName":"city, village,...","countryName":"Portugal","fcodeName":"populated place","adminName1":"Lisboa","lat":"38.77721","fcode":"PPL"},{"adminCode1":"19","lng":"-9.23221","geonameId":7116497,"bbox":{"east":-9.2206903765999,"south":38.632350513037,"north":38.65033781054,"west":-9.2437223126091},"toponymName":"Costa da Caparica","countryId":"2264397","fcl":"P","population":0,"countryCode":"PT","name":"Costa de Caparica","fclName":"city, village,...","countryName":"Portugal","fcodeName":"populated place","adminName1":"Set\u00fabal","lat":"38.64134","fcode":"PPL"},{"adminCode1":"14","lng":"-9.26593","geonameId":2264270,"bbox":{"east":-9.2506799253678,"south":38.710458521012,"north":38.734253478988,"west":-9.2811840746322},"toponymName":"Quejas","countryId":"2264397","fcl":"P","population":8828,"countryCode":"PT","name":"Quejas","fclName":"city, village,...","countryName":"Portugal","fcodeName":"populated place","adminName1":"Lisboa","lat":"38.72236","fcode":"PPL"},{"adminCode1":"14","lng":"-9.35412","geonameId":2265169,"bbox":{"east":-9.3325577370782,"south":38.675989423858,"north":38.709640576142,"west":-9.3756822629218},"toponymName":"Parede","countryId":"2264397","fcl":"P","population":17212,"countryCode":"PT","name":"Parede","fclName":"city, village,...","countryName":"Portugal","fcodeName":"populated place","adminName1":"Lisboa","lat":"38.69282","fcode":"PPL"},{"adminCode1":"14","lng":"-9.41606","geonameId":2265927,"bbox":{"east":-9.3909319206017,"south":38.683192068868,"north":38.72239447491,"west":-9.4411794380408},"toponymName":"Monte Estoril","countryId":"2264397","fcl":"P","population":23375,"countryCode":"PT","name":"Monte Estoril","fclName":"city, village,...","countryName":"Portugal","fcodeName":"populated place","adminName1":"Lisboa","lat":"38.70279","fcode":"PPL"},{"adminCode1":"14","lng":"-9.46667","geonameId":2268207,"bbox":{"east":-9.4655134827352,"south":38.749100635125,"north":38.750899364875,"west":-9.4678199172648},"toponymName":"Figueira do Guincho","countryId":"2264397","fcl":"P","population":500,"countryCode":"PT","name":"Figueira do Guincho","fclName":"city, village,...","countryName":"Portugal","fcodeName":"populated place","adminName1":"Lisboa","lat":"38.75","fcode":"PPL"},{"adminCode1":"14","lng":"-9.22936","geonameId":2271985,"bbox":{"east":-9.206305488595,"south":38.684464702497,"north":38.720439297503,"west":-9.252414511405},"toponymName":"Alg\u00e9s","countryId":"2264397","fcl":"P","population":19327,"countryCode":"PT","name":"Alg\u00e9s","fclName":"city, village,...","countryName":"Portugal","fcodeName":"populated place","adminName1":"Lisboa","lat":"38.70245","fcode":"PPL"},{"adminCode1":"14","lng":"-9.33333","geonameId":2263310,"bbox":{"east":-9.3218105756581,"south":38.674339651249,"north":38.692326948751,"west":-9.3448560243419},"toponymName":"S\u00e3o Juli\u00e3o da Barra","countryId":"2264397","fcl":"P","population":0,"countryCode":"PT","name":"S\u00e3o Juli\u00e3o da Barra","fclName":"city, village,...","countryName":"Portugal","fcodeName":"populated place","adminName1":"Lisboa","lat":"38.68333","fcode":"PPL"},{"adminCode1":"14","lng":"-9.33333","geonameId":2262873,"bbox":{"east":-9.3217596997616,"south":38.985901351248,"north":39.003888648752,"west":-9.3449063002383},"toponymName":"Sobral da Abelheira","countryId":"2264397","fcl":"P","population":0,"countryCode":"PT","name":"Sobral da Abelheira","fclName":"city, village,...","countryName":"Portugal","fcodeName":"populated place","adminName1":"Lisboa","lat":"38.99489","fcode":"PPL"},{"adminCode1":"14","lng":"-9.09079","geonameId":2263326,"bbox":{"east":-9.0684273443414,"south":38.804416874082,"north":38.839249125918,"west":-9.1131466556586},"toponymName":"S\u00e3o Jo\u00e3o da Talha","countryId":"2264397","fcl":"P","population":18925,"countryCode":"PT","name":"S\u00e3o Jo\u00e3o da Talha","fclName":"city, village,...","countryName":"Portugal","fcodeName":"populated place","adminName1":"Lisboa","lat":"38.82183","fcode":"PPL"},{"adminCode1":"14","lng":"-9.39842","geonameId":2263327,"bbox":{"east":-9.3820774384019,"south":38.861042544841,"north":38.88648042492,"west":-9.4147575072768},"toponymName":"S\u00e3o Jo\u00e3o das Lampas","countryId":"2264397","fcl":"P","population":10484,"countryCode":"PT","name":"S\u00e3o Jo\u00e3o das Lampas","fclName":"city, village,...","countryName":"Portugal","fcodeName":"populated place","adminName1":"Lisboa","lat":"38.87376","fcode":"PPL"},{"adminCode1":"14","lng":"-9.16667","geonameId":2264357,"bbox":{"east":-9.1466742646984,"south":38.784422543417,"north":38.815577456583,"west":-9.1866591353016},"toponymName":"P\u00f3voa de Santo Adri\u00e3o","countryId":"2264397","fcl":"P","population":14897,"countryCode":"PT","name":"P\u00f3voa de Santo Adri\u00e3o","fclName":"city, village,...","countryName":"Portugal","fcodeName":"populated place","adminName1":"Lisboa","lat":"38.8","fcode":"PPL"},{"adminCode1":"14","lng":"-9.15484","geonameId":2264541,"bbox":{"east":-9.1432948546669,"south":38.806889351249,"north":38.824876648751,"west":-9.1663831453331},"toponymName":"Ponte de Frielas","countryId":"2264397","fcl":"P","population":0,"countryCode":"PT","name":"Ponte de Frielas","fclName":"city, village,...","countryName":"Portugal","fcodeName":"populated place","adminName1":"Lisboa","lat":"38.81588","fcode":"PPL"},{"adminCode1":"14","lng":"-9.45372","geonameId":2264945,"bbox":{"east":-9.4421744842755,"south":38.784491351249,"north":38.802478648751,"west":-9.4652555157245},"toponymName":"Penedo","countryId":"2264397","fcl":"P","population":0,"countryCode":"PT","name":"Penedo","fclName":"city, village,...","countryName":"Portugal","fcodeName":"populated place","adminName1":"Lisboa","lat":"38.79348","fcode":"PPL"},{"adminCode1":"14","lng":"-9.33135","geonameId":2265291,"bbox":{"east":-9.3197281281585,"south":39.280631351249,"north":39.298618648751,"west":-9.3429718718415},"toponymName":"Pai Mogo","countryId":"2264397","fcl":"P","population":0,"countryCode":"PT","name":"Pai Mogo","fclName":"city, village,...","countryName":"Portugal","fcodeName":"populated place","adminName1":"Lisboa","lat":"39.28963","fcode":"PPL"},{"adminCode1":"14","lng":"-9.47594","geonameId":2265454,"bbox":{"east":-9.4643966278363,"south":38.777429351249,"north":38.795416648751,"west":-9.4874753721637},"toponymName":"Ulgueira","countryId":"2264397","fcl":"P","population":0,"countryCode":"PT","name":"Ulgueira","fclName":"city, village,...","countryName":"Portugal","fcodeName":"populated place","adminName1":"Lisboa","lat":"38.78642","fcode":"PPL"},{"adminCode1":"14","lng":"-9.31983","geonameId":2267880,"bbox":{"east":-9.3082500442135,"south":39.014339351249,"north":39.032326648751,"west":-9.3314059557865},"toponymName":"Freiria","countryId":"2264397","fcl":"P","population":0,"countryCode":"PT","name":"Freiria","fclName":"city, village,...","countryName":"Portugal","fcodeName":"populated place","adminName1":"Lisboa","lat":"39.02333","fcode":"PPL"},{"adminCode1":"14","lng":"-9.06823","geonameId":2261697,"bbox":{"east":-9.0474042625616,"south":38.854731469137,"north":38.887158530863,"west":-9.0890637374384},"toponymName":"Vialonga","countryId":"2264397","fcl":"P","population":16088,"countryCode":"PT","name":"Vialonga","fclName":"city, village,...","countryName":"Portugal","fcodeName":"populated place","adminName1":"Lisboa","lat":"38.87094","fcode":"PPL"},{"adminCode1":"14","lng":"-9.03864","geonameId":2271797,"bbox":{"east":-9.0270863531766,"south":38.889987351249,"north":38.907974648751,"west":-9.0502016468234},"toponymName":"Alverca do Ribatejo","countryId":"2264397","fcl":"P","population":0,"countryCode":"PT","name":"Alverca do Ribatejo","fclName":"city, village,...","countryName":"Portugal","fcodeName":"populated place","adminName1":"Lisboa","lat":"38.89898","fcode":"PPL"},{"adminCode1":"14","lng":"-9.27315","geonameId":2271945,"bbox":{"east":-9.2590102085728,"south":38.833836074817,"north":38.855865925183,"west":-9.2872997914272},"toponymName":"Almargem","countryId":"2264397","fcl":"P","population":8271,"countryCode":"PT","name":"Almargem","fclName":"city, village,...","countryName":"Portugal","fcodeName":"populated place","adminName1":"Lisboa","lat":"38.84485","fcode":"PPL"},{"adminCode1":"14","lng":"-9.08937","geonameId":2272386,"bbox":{"east":-9.077808495454,"south":38.925933351249,"north":38.943920648751,"west":-9.100935504546},"toponymName":"A do Mour\u00e3o","countryId":"2264397","fcl":"P","population":0,"countryCode":"PT","name":"A do Mour\u00e3o","fclName":"city, village,...","countryName":"Portugal","fcodeName":"populated place","adminName1":"Lisboa","lat":"38.93493","fcode":"PPL"},{"adminCode1":"14","lng":"-9.43002","geonameId":2266860,"bbox":{"east":-9.4184720719348,"south":38.858670083415,"north":38.876657380918,"west":-9.4415771758069},"toponymName":"Magoito","countryId":"2264397","fcl":"P","population":0,"countryCode":"PT","name":"Magoito","fclName":"city, village,...","countryName":"Portugal","fcodeName":"populated place","adminName1":"Lisboa","lat":"38.86766","fcode":"PPL"},{"adminCode1":"19","lng":"-9.10318","geonameId":2263489,"bbox":{"east":-9.0916908244319,"south":38.452422351249,"north":38.470409648751,"west":-9.1146651755681},"toponymName":"Santana","countryId":"2264397","fcl":"P","population":0,"countryCode":"PT","name":"Santana","fclName":"city, village,...","countryName":"Portugal","fcodeName":"populated place","adminName1":"Set\u00fabal","lat":"38.46142","fcode":"PPL"},{"adminCode1":"19","lng":"-9.23556","geonameId":2268916,"bbox":{"east":-9.2164564862542,"south":38.629665720798,"north":38.659494279202,"west":-9.2546555137458},"toponymName":"Costa de Caparica","countryId":"2264397","fcl":"P","population":14231,"countryCode":"PT","name":"Costa de Caparica","fclName":"city, village,...","countryName":"Portugal","fcodeName":"populated place","adminName1":"Set\u00fabal","lat":"38.64458","fcode":"PPL"},{"adminCode1":"14","lng":"-9.36026","geonameId":2265736,"bbox":{"east":-9.3487327675293,"south":38.696107351249,"north":38.714094648751,"west":-9.3717852324707},"toponymName":"Mortal","countryId":"2264397","fcl":"P","population":0,"countryCode":"PT","name":"Mortal","fclName":"city, village,...","countryName":"Portugal","fcodeName":"populated place","adminName1":"Lisboa","lat":"38.7051","fcode":"PPL"},{"adminCode1":"14","lng":"-9.36608","geonameId":2266766,"bbox":{"east":-9.3545477473368,"south":38.727216351249,"north":38.745203648751,"west":-9.3776102526632},"toponymName":"Manique de Baixo","countryId":"2264397","fcl":"P","population":0,"countryCode":"PT","name":"Manique de Baixo","fclName":"city, village,...","countryName":"Portugal","fcodeName":"populated place","adminName1":"Lisboa","lat":"38.73621","fcode":"PPL"},{"adminCode1":"14","lng":"-9.44578","geonameId":2266778,"bbox":{"east":-9.4342476395742,"south":38.746450351249,"north":38.764437648751,"west":-9.4573163604258},"toponymName":"Malveira da Serra","countryId":"2264397","fcl":"P","population":0,"countryCode":"PT","name":"Malveira da Serra","fclName":"city, village,...","countryName":"Portugal","fcodeName":"populated place","adminName1":"Lisboa","lat":"38.75544","fcode":"PPL"},{"adminCode1":"14","lng":"-9.12014","geonameId":2269251,"bbox":{"east":-9.1086069479785,"south":38.732165351249,"north":38.750152648751,"west":-9.1316710520215},"toponymName":"Chelas","countryId":"2264397","fcl":"P","population":0,"countryCode":"PT","name":"Chelas","fclName":"city, village,...","countryName":"Portugal","fcodeName":"populated place","adminName1":"Lisboa","lat":"38.74116","fcode":"PPL"},{"adminCode1":"14","lng":"-9.28693","geonameId":2262687,"bbox":{"east":-9.2769469663984,"south":38.698685271709,"north":38.714262728291,"west":-9.2969110336016},"toponymName":"Terrugem","countryId":"2264397","fcl":"P","population":4693,"countryCode":"PT","name":"Terrugem","fclName":"city, village,...","countryName":"Portugal","fcodeName":"populated place","adminName1":"Lisboa","lat":"38.70647","fcode":"PPL"},{"adminCode1":"14","lng":"-9.10335","geonameId":2271001,"bbox":{"east":-9.0918232214632,"south":38.724280351249,"north":38.742267648751,"west":-9.1148847785368},"toponymName":"Beato Ant\u00f3nio","countryId":"2264397","fcl":"P","population":0,"countryCode":"PT","name":"Beato Ant\u00f3nio","fclName":"city, village,...","countryName":"Portugal","fcodeName":"populated place","adminName1":"Lisboa","lat":"38.73327","fcode":"PPL"},{"adminCode1":"14","lng":"-9.39228","geonameId":2272141,"bbox":{"east":-9.3807530958329,"south":38.725058351249,"north":38.743045648751,"west":-9.4038149041671},"toponymName":"Alcoit\u00e3o","countryId":"2264397","fcl":"P","population":0,"countryCode":"PT","name":"Alcoit\u00e3o","fclName":"city, village,...","countryName":"Portugal","fcodeName":"populated place","adminName1":"Lisboa","lat":"38.73405","fcode":"PPL"},{"adminCode1":"14","lng":"-9.33382","geonameId":2272462,"bbox":{"east":-9.3222934931573,"south":38.716403351249,"north":38.734390648751,"west":-9.3453525068427},"toponymName":"Ab\u00f3bada","countryId":"2264397","fcl":"P","population":0,"countryCode":"PT","name":"Ab\u00f3bada","fclName":"city, village,...","countryName":"Portugal","fcodeName":"populated place","adminName1":"Lisboa","lat":"38.7254","fcode":"PPL"},{"adminCode1":"14","lng":"-9.14421","geonameId":6620263,"bbox":{"east":-9.1326760837429,"south":38.733994422338,"north":38.751981719841,"west":-9.1557407787449},"toponymName":"campo pequeno","countryId":"2264397","fcl":"P","population":0,"countryCode":"PT","name":"Campo Pequeno","fclName":"city, village,...","countryName":"Portugal","fcodeName":"populated place","adminName1":"Lisboa","lat":"38.74299","fcode":"PPL"},{"adminCode1":"14","lng":"-9.02656","geonameId":2262867,"bbox":{"east":-9.0165504080849,"south":38.909242271709,"north":38.924819728291,"west":-9.0365735919151},"toponymName":"Sobralinho","countryId":"2264397","fcl":"P","population":4453,"countryCode":"PT","name":"Sobralinho","fclName":"city, village,...","countryName":"Portugal","fcodeName":"populated place","adminName1":"Lisboa","lat":"38.91703","fcode":"PPL"},{"adminCode1":"14","lng":"-9.3643","geonameId":2262944,"bbox":{"east":-9.3513371280171,"south":39.101141795013,"north":39.121252204987,"west":-9.3772588719829},"toponymName":"Silveira","countryId":"2264397","fcl":"P","population":6942,"countryCode":"PT","name":"Silveira","fclName":"city, village,...","countryName":"Portugal","fcodeName":"populated place","adminName1":"Lisboa","lat":"39.1112","fcode":"PPL"},{"adminCode1":"14","lng":"-9.20269","geonameId":2264370,"bbox":{"east":-9.1911262171142,"south":38.921508351249,"north":38.939495648751,"west":-9.2142517828858},"toponymName":"P\u00f3voa da Galega","countryId":"2264397","fcl":"P","population":0,"countryCode":"PT","name":"P\u00f3voa da Galega","fclName":"city, village,...","countryName":"Portugal","fcodeName":"populated place","adminName1":"Lisboa","lat":"38.9305","fcode":"PPL"},{"adminCode1":"14","lng":"-9.19268","geonameId":2264709,"bbox":{"east":-9.1811361114411,"south":38.829962351249,"north":38.847949648751,"west":-9.2042318885589},"toponymName":"Pinheiro","countryId":"2264397","fcl":"P","population":0,"countryCode":"PT","name":"Pinheiro","fclName":"city, village,...","countryName":"Portugal","fcodeName":"populated place","adminName1":"Lisboa","lat":"38.83896","fcode":"PPL"},{"adminCode1":"14","lng":"-9.32352","geonameId":2264811,"bbox":{"east":-9.3135157498632,"south":38.850043271709,"north":38.865620728291,"west":-9.3335222501368},"toponymName":"Pero Pinheiro","countryId":"2264397","fcl":"P","population":4792,"countryCode":"PT","name":"Pero Pinheiro","fclName":"city, village,...","countryName":"Portugal","fcodeName":"populated place","adminName1":"Lisboa","lat":"38.85783","fcode":"PPL"},{"adminCode1":"14","lng":"-9.29961","geonameId":2265402,"bbox":{"east":-9.2880608353067,"south":38.843979351249,"north":38.861966648751,"west":-9.3111611646933},"toponymName":"Ormal","countryId":"2264397","fcl":"P","population":0,"countryCode":"PT","name":"Ormal","fclName":"city, village,...","countryName":"Portugal","fcodeName":"populated place","adminName1":"Lisboa","lat":"38.85297","fcode":"PPL"},{"adminCode1":"14","lng":"-9.16621","geonameId":2265422,"bbox":{"east":-9.1546689212137,"south":38.781793351249,"north":38.799780648751,"west":-9.1777490787863},"toponymName":"Olival do Basto","countryId":"2264397","fcl":"P","population":5959,"countryCode":"PT","name":"Olival do Basto","fclName":"city, village,...","countryName":"Portugal","fcodeName":"populated place","adminName1":"Lisboa","lat":"38.79079","fcode":"PPL"},{"adminCode1":"14","lng":"-9.27781","geonameId":2265548,"bbox":{"east":-9.2662577824983,"south":38.868913351249,"north":38.886900648751,"west":-9.2893662175017},"toponymName":"Negrais","countryId":"2264397","fcl":"P","population":0,"countryCode":"PT","name":"Negrais","fclName":"city, village,...","countryName":"Portugal","fcodeName":"populated place","adminName1":"Lisboa","lat":"38.87791","fcode":"PPL"},{"adminCode1":"14","lng":"-9.16564","geonameId":2265688,"bbox":{"east":-9.1540563957237,"south":39.024399351249,"north":39.042386648751,"west":-9.1772156042763},"toponymName":"Mouguela","countryId":"2264397","fcl":"P","population":0,"countryCode":"PT","name":"Mouguela","fclName":"city, village,...","countryName":"Portugal","fcodeName":"populated place","adminName1":"Lisboa","lat":"39.03339","fcode":"PPL"},{"adminCode1":"14","lng":"-9.31695","geonameId":2265732,"bbox":{"east":-9.3054010155486,"south":38.836712351249,"north":38.854699648751,"west":-9.3284989844514},"toponymName":"Mortena","countryId":"2264397","fcl":"P","population":0,"countryCode":"PT","name":"Mortena","fclName":"city, village,...","countryName":"Portugal","fcodeName":"populated place","adminName1":"Lisboa","lat":"38.84571","fcode":"PPL"},{"adminCode1":"14","lng":"-9.19914","geonameId":2266411,"bbox":{"east":-9.1875704741265,"south":38.938322351249,"north":38.956309648751,"west":-9.2107015258735},"toponymName":"Milharado","countryId":"2264397","fcl":"P","population":5935,"countryCode":"PT","name":"Milharado","fclName":"city, village,...","countryName":"Portugal","fcodeName":"populated place","adminName1":"Lisboa","lat":"38.94732","fcode":"PPL"},{"adminCode1":"14","lng":"-9.31349","geonameId":2266480,"bbox":{"east":-9.3019491771841,"south":38.786387351249,"north":38.804374648751,"west":-9.3250308228159},"toponymName":"Mele\u00e7as","countryId":"2264397","fcl":"P","population":0,"countryCode":"PT","name":"Mele\u00e7as","fclName":"city, village,...","countryName":"Portugal","fcodeName":"populated place","adminName1":"Lisboa","lat":"38.79538","fcode":"PPL"},{"adminCode1":"14","lng":"-9.17673","geonameId":2266539,"bbox":{"east":-9.1651371285279,"south":39.129471351249,"north":39.147458648751,"west":-9.1883308714721},"toponymName":"Maxial","countryId":"2264397","fcl":"P","population":0,"countryCode":"PT","name":"Maxial","fclName":"city, village,...","countryName":"Portugal","fcodeName":"populated place","adminName1":"Lisboa","lat":"39.13846","fcode":"PPL"},{"adminCode1":"14","lng":"-8.86774","geonameId":2266615,"bbox":{"east":-8.8561389147584,"south":39.185313351249,"north":39.203300648751,"west":-8.8793510852416},"toponymName":"Massu\u00e7a","countryId":"2264397","fcl":"P","population":0,"countryCode":"PT","name":"Massu\u00e7a","fclName":"city, village,...","countryName":"Portugal","fcodeName":"populated place","adminName1":"Lisboa","lat":"39.19431","fcode":"PPL"},{"adminCode1":"14","lng":"-9.25779","geonameId":2266777,"bbox":{"east":-9.2477712765337,"south":38.924341271709,"north":38.939918728291,"west":-9.2677987234663},"toponymName":"Malveira","countryId":"2264397","fcl":"P","population":4747,"countryCode":"PT","name":"Malveira","fclName":"city, village,...","countryName":"Portugal","fcodeName":"populated place","adminName1":"Lisboa","lat":"38.93213","fcode":"PPL"},{"adminCode1":"14","lng":"-9.26884","geonameId":2266900,"bbox":{"east":-9.2572885710797,"south":38.839449351249,"north":38.857436648751,"west":-9.2803874289203},"toponymName":"Machados","countryId":"2264397","fcl":"P","population":0,"countryCode":"PT","name":"Machados","fclName":"city, village,...","countryName":"Portugal","fcodeName":"populated place","adminName1":"Lisboa","lat":"38.84844","fcode":"PPL"},{"adminCode1":"14","lng":"-9.29242","geonameId":2266945,"bbox":{"east":-9.280828616278,"south":39.065718351248,"north":39.083705648752,"west":-9.304001383722},"toponymName":"Lugar das Adegas","countryId":"2264397","fcl":"P","population":0,"countryCode":"PT","name":"Lugar das Adegas","fclName":"city, village,...","countryName":"Portugal","fcodeName":"populated place","adminName1":"Lisboa","lat":"39.07471","fcode":"PPL"},{"adminCode1":"14","lng":"-9.29816","geonameId":2267216,"bbox":{"east":-9.2866020202051,"south":38.892032351249,"north":38.910019648751,"west":-9.3097179797949},"toponymName":"Laje","countryId":"2264397","fcl":"P","population":0,"countryCode":"PT","name":"Laje","fclName":"city, village,...","countryName":"Portugal","fcodeName":"populated place","adminName1":"Lisboa","lat":"38.90103","fcode":"PPL"},{"adminCode1":"14","lng":"-9.33757","geonameId":2267525,"bbox":{"east":-9.3260224940241,"south":38.827605351249,"north":38.845592648751,"west":-9.3491175059759},"toponymName":"Granja do Marquez","countryId":"2264397","fcl":"P","population":0,"countryCode":"PT","name":"Granja do Marquez","fclName":"city, village,...","countryName":"Portugal","fcodeName":"populated place","adminName1":"Lisboa","lat":"38.8366","fcode":"PPL"},{"adminCode1":"14","lng":"-9.32934","geonameId":2267902,"bbox":{"east":-9.317808881005,"south":38.751142351248,"north":38.769129648752,"west":-9.340879118995},"toponymName":"Francos","countryId":"2264397","fcl":"P","population":0,"countryCode":"PT","name":"Francos","fclName":"city, village,...","countryName":"Portugal","fcodeName":"populated place","adminName1":"Lisboa","lat":"38.76014","fcode":"PPL"},{"adminCode1":"14","lng":"-9.114","geonameId":2268232,"bbox":{"east":-9.1024195459846,"south":39.017380351249,"north":39.035367648751,"west":-9.1255764540154},"toponymName":"Fetais","countryId":"2264397","fcl":"P","population":0,"countryCode":"PT","name":"Fetais","fclName":"city, village,...","countryName":"Portugal","fcodeName":"populated place","adminName1":"Lisboa","lat":"39.02637","fcode":"PPL"},{"adminCode1":"14","lng":"-9.21033","geonameId":2268358,"bbox":{"east":-9.1950658769003,"south":38.776143521012,"north":38.799938478988,"west":-9.2255981230997},"toponymName":"Fam\u00f5es","countryId":"2264397","fcl":"P","population":9435,"countryCode":"PT","name":"Fam\u00f5es","fclName":"city, village,...","countryName":"Portugal","fcodeName":"populated place","adminName1":"Lisboa","lat":"38.78804","fcode":"PPL"},{"adminCode1":"14","lng":"-9.18201","geonameId":2268684,"bbox":{"east":-9.1704347200296,"south":39.028521351249,"north":39.046508648751,"west":-9.1935952799704},"toponymName":"Dois Portos","countryId":"2264397","fcl":"P","population":0,"countryCode":"PT","name":"Dois Portos","fclName":"city, village,...","countryName":"Portugal","fcodeName":"populated place","adminName1":"Lisboa","lat":"39.03751","fcode":"PPL"},{"adminCode1":"14","lng":"-9.25264","geonameId":2268850,"bbox":{"east":-9.2410897251702,"south":38.856965351249,"north":38.874952648751,"west":-9.2641942748298},"toponymName":"Covas de Ferro","countryId":"2264397","fcl":"P","population":0,"countryCode":"PT","name":"Covas de Ferro","fclName":"city, village,...","countryName":"Portugal","fcodeName":"populated place","adminName1":"Lisboa","lat":"38.86596","fcode":"PPL"},{"adminCode1":"14","lng":"-9.16615","geonameId":2269896,"bbox":{"east":-9.1545799536243,"south":38.978235351249,"north":38.996222648751,"west":-9.1777240463757},"toponymName":"Casais","countryId":"2264397","fcl":"P","population":0,"countryCode":"PT","name":"Casais","fclName":"city, village,...","countryName":"Portugal","fcodeName":"populated place","adminName1":"Lisboa","lat":"38.98723","fcode":"PPL"},{"adminCode1":"14","lng":"-9.16832","geonameId":2269898,"bbox":{"east":-9.1567640994928,"south":38.873112351249,"north":38.891099648751,"west":-9.1798739005072},"toponymName":"Casa\u00ednhos","countryId":"2264397","fcl":"P","population":0,"countryCode":"PT","name":"Casa\u00ednhos","fclName":"city, village,...","countryName":"Portugal","fcodeName":"populated place","adminName1":"Lisboa","lat":"38.88211","fcode":"PPL"},{"adminCode1":"14","lng":"-9.31702","geonameId":2261572,"bbox":{"east":-9.3054196615079,"south":39.168682351249,"north":39.186669648751,"west":-9.3286263384921},"toponymName":"Vimeiro","countryId":"2264397","fcl":"P","population":0,"countryCode":"PT","name":"Vimeiro","fclName":"city, village,...","countryName":"Portugal","fcodeName":"populated place","adminName1":"Lisboa","lat":"39.17768","fcode":"PPL"},{"adminCode1":"14","lng":"-9.23178","geonameId":2261760,"bbox":{"east":-9.2202143342712,"south":38.914656351249,"north":38.932643648751,"west":-9.2433376657288},"toponymName":"Venda do Pinheiro","countryId":"2264397","fcl":"P","population":4950,"countryCode":"PT","name":"Venda do Pinheiro","fclName":"city, village,...","countryName":"Portugal","fcodeName":"populated place","adminName1":"Lisboa","lat":"38.92365","fcode":"PPL"},{"adminCode1":"14","lng":"-9.22447","geonameId":2262128,"bbox":{"east":-9.2129283451101,"south":38.816197351249,"north":38.834184648751,"west":-9.2360196548899},"toponymName":"Vale de Nogueira","countryId":"2264397","fcl":"P","population":0,"countryCode":"PT","name":"Vale de Nogueira","fclName":"city, village,...","countryName":"Portugal","fcodeName":"populated place","adminName1":"Lisboa","lat":"38.82519","fcode":"PPL"},{"adminCode1":"14","lng":"-9.09925","geonameId":2270813,"bbox":{"east":-9.0851171899814,"south":38.796729384988,"north":38.818759235355,"west":-9.1133920263272},"toponymName":"Bobadela","countryId":"2264397","fcl":"P","population":8399,"countryCode":"PT","name":"Bobadela","fclName":"city, village,...","countryName":"Portugal","fcodeName":"populated place","adminName1":"Lisboa","lat":"38.80774","fcode":"PPL"},{"adminCode1":"14","lng":"-9.38505","geonameId":2271572,"bbox":{"east":-9.3734606927285,"south":39.101751351249,"north":39.119738648751,"west":-9.3966453072715},"toponymName":"Areias","countryId":"2264397","fcl":"P","population":0,"countryCode":"PT","name":"Areias","fclName":"city, village,...","countryName":"Portugal","fcodeName":"populated place","adminName1":"Lisboa","lat":"39.11075","fcode":"PPL"},{"adminCode1":"14","lng":"-9.13225","geonameId":2271623,"bbox":{"east":-9.119347425257,"south":38.803816795013,"north":38.823927204987,"west":-9.145160574743},"toponymName":"Apela\u00e7\u00e3o","countryId":"2264397","fcl":"P","population":7182,"countryCode":"PT","name":"Apela\u00e7\u00e3o","fclName":"city, village,...","countryName":"Portugal","fcodeName":"populated place","adminName1":"Lisboa","lat":"38.81387","fcode":"PPL"},{"adminCode1":"14","lng":"-9.37445","geonameId":2271807,"bbox":{"east":-9.362894717368,"south":38.887750351249,"north":38.905737648751,"west":-9.386009282632},"toponymName":"Alvarinhos","countryId":"2264397","fcl":"P","population":0,"countryCode":"PT","name":"Alvarinhos","fclName":"city, village,...","countryName":"Portugal","fcodeName":"populated place","adminName1":"Lisboa","lat":"38.89674","fcode":"PPL"},{"adminCode1":"14","lng":"-8.95953","geonameId":2272143,"bbox":{"east":-8.9494779658148,"south":39.200784271709,"north":39.216361728291,"west":-8.9695840341852},"toponymName":"Alcoentre","countryId":"2264397","fcl":"P","population":3923,"countryCode":"PT","name":"Alcoentre","fclName":"city, village,...","countryName":"Portugal","fcodeName":"populated place","adminName1":"Lisboa","lat":"39.20857","fcode":"PPL"},{"adminCode1":"14","lng":"-9.13347","geonameId":2272382,"bbox":{"east":-9.121898909355,"south":38.966272351248,"north":38.984259648752,"west":-9.145039090645},"toponymName":"A dos Arcos","countryId":"2264397","fcl":"P","population":0,"countryCode":"PT","name":"A dos Arcos","fclName":"city, village,...","countryName":"Portugal","fcodeName":"populated place","adminName1":"Lisboa","lat":"38.97527","fcode":"PPL"},{"adminCode1":"14","lng":"-9.16521","geonameId":2272403,"bbox":{"east":-9.1536551726782,"south":38.841902351248,"north":38.859889648752,"west":-9.1767548273218},"toponymName":"A das Lebres","countryId":"2264397","fcl":"P","population":0,"countryCode":"PT","name":"A das Lebres","fclName":"city, village,...","countryName":"Portugal","fcodeName":"populated place","adminName1":"Lisboa","lat":"38.8509","fcode":"PPL"},{"adminCode1":"14","lng":"-9.37174","geonameId":2263245,"bbox":{"east":-9.3617097635998,"south":39.062037271709,"north":39.077614728291,"west":-9.3817762364002},"toponymName":"S\u00e3o Pedro da Cadeira","countryId":"2264397","fcl":"P","population":4452,"countryCode":"PT","name":"S\u00e3o Pedro da Cadeira","fclName":"city, village,...","countryName":"Portugal","fcodeName":"populated place","adminName1":"Lisboa","lat":"39.06983","fcode":"PPL"},{"adminCode1":"14","lng":"-9.12773","geonameId":2263309,"bbox":{"east":-9.1161826421252,"south":38.851323351249,"north":38.869310648751,"west":-9.1392853578748},"toponymName":"S\u00e3o Juli\u00e3o do Tojal","countryId":"2264397","fcl":"P","population":0,"countryCode":"PT","name":"S\u00e3o Juli\u00e3o do Tojal","fclName":"city, village,...","countryName":"Portugal","fcodeName":"populated place","adminName1":"Lisboa","lat":"38.86032","fcode":"PPL"},{"adminCode1":"14","lng":"-9.01892","geonameId":2263322,"bbox":{"east":-9.0089082434275,"south":38.931655271709,"north":38.947232728291,"west":-9.0289377565725},"toponymName":"S\u00e3o Jo\u00e3o dos Montes","countryId":"2264397","fcl":"P","population":4772,"countryCode":"PT","name":"S\u00e3o Jo\u00e3o dos Montes","fclName":"city, village,...","countryName":"Portugal","fcodeName":"populated place","adminName1":"Lisboa","lat":"38.93944","fcode":"PPL"},{"adminCode1":"14","lng":"-9.31915","geonameId":2264532,"bbox":{"east":-9.3075597540559,"south":39.083137351249,"north":39.101124648751,"west":-9.3307382459441},"toponymName":"Ponte do Rol","countryId":"2264397","fcl":"P","population":0,"countryCode":"PT","name":"Ponte do Rol","fclName":"city, village,...","countryName":"Portugal","fcodeName":"populated place","adminName1":"Lisboa","lat":"39.09213","fcode":"PPL"},{"adminCode1":"14","lng":"-9.11172","geonameId":2266445,"bbox":{"east":-9.1001264499249,"south":39.084987351249,"north":39.102974648751,"west":-9.1233055500751},"toponymName":"Merceana","countryId":"2264397","fcl":"P","population":0,"countryCode":"PT","name":"Merceana","fclName":"city, village,...","countryName":"Portugal","fcodeName":"populated place","adminName1":"Lisboa","lat":"39.09398","fcode":"PPL"},{"adminCode1":"14","lng":"-9.11512","geonameId":2261582,"bbox":{"east":-9.1035194209479,"south":39.145897351249,"north":39.163884648751,"west":-9.1267185790521},"toponymName":"Vila Verde","countryId":"2264397","fcl":"P","population":0,"countryCode":"PT","name":"Vila Verde","fclName":"city, village,...","countryName":"Portugal","fcodeName":"populated place","adminName1":"Lisboa","lat":"39.15489","fcode":"PPL"},{"adminCode1":"14","lng":"-9.39493","geonameId":2261825,"bbox":{"east":-9.3833806631728,"south":38.808070351249,"north":38.826057648751,"west":-9.4064693368272},"toponymName":"V\u00e1rzea de Sintra","countryId":"2264397","fcl":"P","population":0,"countryCode":"PT","name":"V\u00e1rzea de Sintra","fclName":"city, village,...","countryName":"Portugal","fcodeName":"populated place","adminName1":"Lisboa","lat":"38.81706","fcode":"PPL"},{"adminCode1":"14","lng":"-9.19027","geonameId":2270554,"bbox":{"east":-9.1787105572476,"south":38.894875351249,"north":38.912862648751,"west":-9.2018274427524},"toponymName":"Cabe\u00e7o de Montachique","countryId":"2264397","fcl":"P","population":0,"countryCode":"PT","name":"Cabe\u00e7o de Montachique","fclName":"city, village,...","countryName":"Portugal","fcodeName":"populated place","adminName1":"Lisboa","lat":"38.90387","fcode":"PPL"},{"adminCode1":"14","lng":"-9.34382","geonameId":2272376,"bbox":{"east":-9.3322765057218,"south":38.809041351249,"north":38.827028648751,"west":-9.3553654942782},"toponymName":"A dos Ralhados","countryId":"2264397","fcl":"P","population":0,"countryCode":"PT","name":"A dos Ralhados","fclName":"city, village,...","countryName":"Portugal","fcodeName":"populated place","adminName1":"Lisboa","lat":"38.81804","fcode":"PPL"},{"adminCode1":"14","lng":"-9.33527","geonameId":2272407,"bbox":{"east":-9.323705093279,"south":38.946781351249,"north":38.964768648751,"west":-9.346838906721},"toponymName":"A da P\u00eara","countryId":"2264397","fcl":"P","population":0,"countryCode":"PT","name":"A da P\u00eara","fclName":"city, village,...","countryName":"Portugal","fcodeName":"populated place","adminName1":"Lisboa","lat":"38.95578","fcode":"PPL"},{"adminCode1":"14","lng":"-9.39651","geonameId":2272410,"bbox":{"east":-9.3849529382764,"south":38.874103351248,"north":38.892090648752,"west":-9.4080630617236},"toponymName":"A da Longa","countryId":"2264397","fcl":"P","population":0,"countryCode":"PT","name":"A da Longa","fclName":"city, village,...","countryName":"Portugal","fcodeName":"populated place","adminName1":"Lisboa","lat":"38.8831","fcode":"PPL"},{"adminCode1":"14","lng":"-9.46667","geonameId":2264915,"bbox":{"east":-9.4551305248742,"south":38.757673051249,"north":38.775660348751,"west":-9.4782028751258},"toponymName":"Peninha","countryId":"2264397","fcl":"P","population":0,"countryCode":"PT","name":"Peninha","fclName":"city, village,...","countryName":"Portugal","fcodeName":"populated place","adminName1":"Lisboa","lat":"38.76667","fcode":"PPL"},{"adminCode1":"14","lng":"-8.96667","geonameId":2263414,"bbox":{"east":-8.9550596739878,"south":39.191006351249,"north":39.208993648751,"west":-8.9782737260122},"toponymName":"Santo Est\u00eav\u00e3o","countryId":"2264397","fcl":"P","population":0,"countryCode":"PT","name":"Santo Est\u00eav\u00e3o","fclName":"city, village,...","countryName":"Portugal","fcodeName":"populated place","adminName1":"Lisboa","lat":"39.2","fcode":"PPL"},{"adminCode1":"14","lng":"-9.35","geonameId":2264381,"bbox":{"east":-9.3384039739569,"south":39.124339651248,"north":39.142326948752,"west":-9.3615960260431},"toponymName":"P\u00f3voa","countryId":"2264397","fcl":"P","population":0,"countryCode":"PT","name":"P\u00f3voa","fclName":"city, village,...","countryName":"Portugal","fcodeName":"populated place","adminName1":"Lisboa","lat":"39.13333","fcode":"PPL"},{"adminCode1":"14","lng":"-9.46667","geonameId":2266386,"bbox":{"east":-9.4551197240305,"south":38.824339651249,"north":38.842326948751,"west":-9.4782136759695},"toponymName":"Mindel","countryId":"2264397","fcl":"P","population":0,"countryCode":"PT","name":"Mindel","fclName":"city, village,...","countryName":"Portugal","fcodeName":"populated place","adminName1":"Lisboa","lat":"38.83333","fcode":"PPL"},{"adminCode1":"14","lng":"-9.35","geonameId":2266464,"bbox":{"east":-9.3384611280306,"south":38.774339651249,"north":38.792326948751,"west":-9.3615388719694},"toponymName":"Mem Martins","countryId":"2264397","fcl":"P","population":0,"countryCode":"PT","name":"Mem Martins","fclName":"city, village,...","countryName":"Portugal","fcodeName":"populated place","adminName1":"Lisboa","lat":"38.78333","fcode":"PPL"},{"adminCode1":"14","lng":"-9.36667","geonameId":2266979,"bbox":{"east":-9.3551251289324,"south":38.791006351249,"north":38.808993648751,"west":-9.3782082710676},"toponymName":"Lourel de Baixo","countryId":"2264397","fcl":"P","population":0,"countryCode":"PT","name":"Lourel de Baixo","fclName":"city, village,...","countryName":"Portugal","fcodeName":"populated place","adminName1":"Lisboa","lat":"38.8","fcode":"PPL"},{"adminCode1":"14","lng":"-9.37824","geonameId":2262686,"bbox":{"east":-9.3666872652803,"south":38.838451874356,"north":38.856439171859,"west":-9.3897857991423},"toponymName":"Terrujem","countryId":"2264397","fcl":"P","population":0,"countryCode":"PT","name":"Terrujem","fclName":"city, village,...","countryName":"Portugal","fcodeName":"populated place","adminName1":"Lisboa","lat":"38.84745","fcode":"PPL"},{"adminCode1":"14","lng":"-9.43333","geonameId":2270216,"bbox":{"east":-9.4217944280306,"south":38.774339651249,"north":38.792326948751,"west":-9.4448721719694},"toponymName":"Capuchos","countryId":"2264397","fcl":"P","population":0,"countryCode":"PT","name":"Capuchos","fclName":"city, village,...","countryName":"Portugal","fcodeName":"populated place","adminName1":"Lisboa","lat":"38.78333","fcode":"PPL"},{"adminCode1":"14","lng":"-9.4","geonameId":2271051,"bbox":{"east":-9.3884367553844,"south":38.924339651249,"north":38.942326948751,"west":-9.4115632446156},"toponymName":"Barril de Cima","countryId":"2264397","fcl":"P","population":0,"countryCode":"PT","name":"Barril de Cima","fclName":"city, village,...","countryName":"Portugal","fcodeName":"populated place","adminName1":"Lisboa","lat":"38.93333","fcode":"PPL"},{"adminCode1":"14","lng":"-9.25","geonameId":2271783,"bbox":{"east":-9.2384503182064,"south":38.841006351249,"north":38.858993648751,"west":-9.2615496817936},"toponymName":"Alvogas","countryId":"2264397","fcl":"P","population":0,"countryCode":"PT","name":"Alvogas","fclName":"city, village,...","countryName":"Portugal","fcodeName":"populated place","adminName1":"Lisboa","lat":"38.85","fcode":"PPL"},{"adminCode1":"14","lng":"-9.31667","geonameId":2269106,"bbox":{"east":-9.3051359118885,"south":38.724339651249,"north":38.742326948751,"west":-9.3281974881115},"toponymName":"Concei\u00e7\u00e3o","countryId":"2264397","fcl":"P","population":0,"countryCode":"PT","name":"Concei\u00e7\u00e3o","fclName":"city, village,...","countryName":"Portugal","fcodeName":"populated place","adminName1":"Lisboa","lat":"38.73333","fcode":"PPL"},{"adminCode1":"14","lng":"-9.43266","geonameId":2269751,"bbox":{"east":-9.421108526644,"south":38.876126637861,"north":38.894113935364,"west":-9.444219308439},"toponymName":"Casal de Pianos","countryId":"2264397","fcl":"P","population":0,"countryCode":"PT","name":"Casal de Pianos","fclName":"city, village,...","countryName":"Portugal","fcodeName":"populated place","adminName1":"Lisboa","lat":"38.88512","fcode":"PPL"},{"adminCode1":"19","lng":"-9.07427","geonameId":2265011,"bbox":{"east":-9.0627841243944,"south":38.450539351249,"north":38.468526648751,"west":-9.0857578756056},"toponymName":"Pedreiras de Baixo","countryId":"2264397","fcl":"P","population":0,"countryCode":"PT","name":"Pedreiras de Baixo","fclName":"city, village,...","countryName":"Portugal","fcodeName":"populated place","adminName1":"Set\u00fabal","lat":"38.45953","fcode":"PPL"},{"adminCode1":"19","lng":"-9.056","geonameId":2270411,"bbox":{"east":-9.0445145410115,"south":38.454201351249,"north":38.472188648751,"west":-9.0674894589885},"toponymName":"Calhariz","countryId":"2264397","fcl":"P","population":0,"countryCode":"PT","name":"Calhariz","fclName":"city, village,...","countryName":"Portugal","fcodeName":"populated place","adminName1":"Set\u00fabal","lat":"38.46319","fcode":"PPL"},{"adminCode1":"14","lng":"-9.43333","geonameId":2267488,"bbox":{"east":-9.421810575658,"south":38.674339651249,"north":38.692326948751,"west":-9.4448560243419},"toponymName":"Guia","countryId":"2264397","fcl":"P","population":0,"countryCode":"PT","name":"Guia","fclName":"city, village,...","countryName":"Portugal","fcodeName":"populated place","adminName1":"Lisboa","lat":"38.68333","fcode":"PPL"},{"adminCode1":"14","lng":"-9.41667","geonameId":2267953,"bbox":{"east":-9.4051007360536,"south":38.941006351249,"north":38.958993648751,"west":-9.4282326639464},"toponymName":"Foz","countryId":"2264397","fcl":"P","population":0,"countryCode":"PT","name":"Foz","fclName":"city, village,...","countryName":"Portugal","fcodeName":"populated place","adminName1":"Lisboa","lat":"38.95","fcode":"PPL"},{"adminCode1":"14","lng":"-8.83333","geonameId":2268181,"bbox":{"east":-8.8217397181795,"south":39.107673351249,"north":39.125660648751,"west":-8.8449262818205},"toponymName":"Firminos","countryId":"2264397","fcl":"P","population":0,"countryCode":"PT","name":"Firminos","fclName":"city, village,...","countryName":"Portugal","fcodeName":"populated place","adminName1":"Lisboa","lat":"39.11667","fcode":"PPL"},{"adminCode1":"14","lng":"-9.2901","geonameId":2270147,"bbox":{"east":-9.2784757489584,"south":39.288937351249,"north":39.306924648751,"west":-9.3017222510416},"toponymName":"Carnide","countryId":"2264397","fcl":"P","population":0,"countryCode":"PT","name":"Carnide","fclName":"city, village,...","countryName":"Portugal","fcodeName":"populated place","adminName1":"Lisboa","lat":"39.29793","fcode":"PPL"},{"adminCode1":"14","lng":"-9.19741","geonameId":2270239,"bbox":{"east":-9.1857907934282,"south":39.240442351249,"north":39.258429648751,"west":-9.2090212065718},"toponymName":"Cantarola","countryId":"2264397","fcl":"P","population":0,"countryCode":"PT","name":"Cantarola","fclName":"city, village,...","countryName":"Portugal","fcodeName":"populated place","adminName1":"Lisboa","lat":"39.24944","fcode":"PPL"},{"adminCode1":"14","lng":"-9.48333","geonameId":2270531,"bbox":{"east":-9.471807889958,"south":38.691006351249,"north":38.708993648751,"west":-9.494858710042},"toponymName":"Cabo Raso","countryId":"2264397","fcl":"P","population":0,"countryCode":"PT","name":"Cabo Raso","fclName":"city, village,...","countryName":"Portugal","fcodeName":"populated place","adminName1":"Lisboa","lat":"38.7","fcode":"PPL"},{"adminCode1":"14","lng":"-9.41659","geonameId":2572270,"bbox":{"east":-9.4050645770606,"south":38.691086351249,"north":38.709073648751,"west":-9.4281154229394},"toponymName":"Albatroz","countryId":"2264397","fcl":"P","population":0,"countryCode":"PT","name":"Albatroz","fclName":"city, village,...","countryName":"Portugal","fcodeName":"populated place","adminName1":"Lisboa","lat":"38.70008","fcode":"PPL"},{"adminCode1":"22","lng":"-7.94046","geonameId":2735802,"bbox":{"east":-7.928624917114,"south":40.497047351249,"north":40.515034648751,"west":-7.952285082886},"toponymName":"P\u00f3voa de Lisboa","countryId":"2264397","fcl":"P","population":0,"countryCode":"PT","name":"P\u00f3voa de Lisboa","fclName":"city, village,...","countryName":"Portugal","fcodeName":"populated place","adminName1":"Viseu","lat":"40.50604","fcode":"PPL"},{"adminCode1":"14","lng":"-9.3961","geonameId":9295763,"bbox":{"east":-9.3845694707725,"south":38.722736351249,"north":38.740723648751,"west":-9.4076305292275},"toponymName":"DH Luxury Villa","countryId":"2264397","fcl":"P","population":0,"countryCode":"PT","name":"DH Luxury Villa","fclName":"city, village,...","countryName":"Portugal","fcodeName":"populated place","adminName1":"Lisboa","lat":"38.73173","fcode":"PPL"},{"adminCode1":"14","lng":"-9.32606","geonameId":9409070,"bbox":{"east":-9.3145369427478,"south":38.676406351249,"north":38.694393648751,"west":-9.3375830572522},"toponymName":"Da House","countryId":"2264397","fcl":"P","population":0,"countryCode":"PT","name":"Da House","fclName":"city, village,...","countryName":"Portugal","fcodeName":"populated place","adminName1":"Lisboa","lat":"38.6854","fcode":"PPL"},{"adminCode1":"14","lng":"-9.40112","geonameId":6545008,"bbox":{"east":-9.389594879551,"south":38.696277923915,"north":38.714265221418,"west":-9.4126473995018},"toponymName":"Costa do Estoril","countryId":"2264397","fcl":"P","population":0,"countryCode":"PT","name":"Costa do Estoril","fclName":"city, village,...","countryName":"Portugal","fcodeName":"populated place","adminName1":"Lisboa","lat":"38.70527","fcode":"PPL"},{"adminCode1":"14","lng":"-9.16133","geonameId":2262968,"bbox":{"east":-9.1497999193873,"south":38.732342351249,"north":38.750329648751,"west":-9.1728640806127},"toponymName":"Sete Rios","countryId":"2264397","fcl":"P","population":0,"countryCode":"PT","name":"Sete Rios","fclName":"city, village,...","countryName":"Portugal","fcodeName":"populated place","adminName1":"Lisboa","lat":"38.74134","fcode":"PPL"},{"adminCode1":"14","lng":"-9.35633","geonameId":2263237,"bbox":{"east":-9.3448102645459,"south":38.686821351249,"north":38.704808648751,"west":-9.3678597354541},"toponymName":"S\u00e3o Pedro do Estoril","countryId":"2264397","fcl":"P","population":0,"countryCode":"PT","name":"S\u00e3o Pedro do Estoril","fclName":"city, village,...","countryName":"Portugal","fcodeName":"populated place","adminName1":"Lisboa","lat":"38.69582","fcode":"PPL"},{"adminCode1":"14","lng":"-9.39608","geonameId":2263883,"bbox":{"east":-9.3845428430891,"south":38.745191351249,"north":38.763178648751,"west":-9.4076111569109},"toponymName":"Ribeira de Penha Longa","countryId":"2264397","fcl":"P","population":0,"countryCode":"PT","name":"Ribeira de Penha Longa","fclName":"city, village,...","countryName":"Portugal","fcodeName":"populated place","adminName1":"Lisboa","lat":"38.75418","fcode":"PPL"},{"adminCode1":"14","lng":"-9.34138","geonameId":2264023,"bbox":{"east":-9.3298510485645,"south":38.688161351249,"north":38.706148648751,"west":-9.3529009514355},"toponymName":"Rebelva","countryId":"2264397","fcl":"P","population":0,"countryCode":"PT","name":"Rebelva","fclName":"city, village,...","countryName":"Portugal","fcodeName":"populated place","adminName1":"Lisboa","lat":"38.69716","fcode":"PPL"},{"adminCode1":"14","lng":"-9.34941","geonameId":2264070,"bbox":{"east":-9.3378857165042,"south":38.690221351249,"north":38.708208648751,"west":-9.3609362834958},"toponymName":"Rana","countryId":"2264397","fcl":"P","population":0,"countryCode":"PT","name":"Rana","fclName":"city, village,...","countryName":"Portugal","fcodeName":"populated place","adminName1":"Lisboa","lat":"38.69922","fcode":"PPL"},{"adminCode1":"14","lng":"-9.15","geonameId":2264133,"bbox":{"east":-9.1384611280306,"south":38.774339651249,"north":38.792326948751,"west":-9.1615388719694},"toponymName":"Quinta dos Milagres","countryId":"2264397","fcl":"P","population":0,"countryCode":"PT","name":"Quinta dos Milagres","fclName":"city, village,...","countryName":"Portugal","fcodeName":"populated place","adminName1":"Lisboa","lat":"38.78333","fcode":"PPL"},{"adminCode1":"14","lng":"-9.2697","geonameId":2264267,"bbox":{"east":-9.2581668190683,"south":38.732963351248,"north":38.750950648752,"west":-9.2812311809317},"toponymName":"Queluz de Baixo","countryId":"2264397","fcl":"P","population":0,"countryCode":"PT","name":"Queluz de Baixo","fclName":"city, village,...","countryName":"Portugal","fcodeName":"populated place","adminName1":"Lisboa","lat":"38.74196","fcode":"PPL"},{"adminCode1":"14","lng":"-9.22211","geonameId":2264494,"bbox":{"east":-9.2105780748357,"south":38.712799351249,"north":38.730786648751,"west":-9.2336359251643},"toponymName":"Portela","countryId":"2264397","fcl":"P","population":0,"countryCode":"PT","name":"Portela","fclName":"city, village,...","countryName":"Portugal","fcodeName":"populated place","adminName1":"Lisboa","lat":"38.72179","fcode":"PPL"},{"adminCode1":"14","lng":"-9.32064","geonameId":2264593,"bbox":{"east":-9.3091106277731,"south":38.715569351249,"north":38.733556648751,"west":-9.3321693722269},"toponymName":"Polima","countryId":"2264397","fcl":"P","population":0,"countryCode":"PT","name":"Polima","fclName":"city, village,...","countryName":"Portugal","fcodeName":"populated place","adminName1":"Lisboa","lat":"38.72456","fcode":"PPL"},{"adminCode1":"14","lng":"-9.10012","geonameId":2264621,"bbox":{"east":-9.0885853775347,"south":38.735696351249,"north":38.753683648751,"west":-9.1116506224653},"toponymName":"Po\u00e7o do Bispo","countryId":"2264397","fcl":"P","population":0,"countryCode":"PT","name":"Po\u00e7o do Bispo","fclName":"city, village,...","countryName":"Portugal","fcodeName":"populated place","adminName1":"Lisboa","lat":"38.74469","fcode":"PPL"},{"adminCode1":"14","lng":"-9.21667","geonameId":2264996,"bbox":{"east":-9.205141289958,"south":38.691006351249,"north":38.708993648751,"west":-9.228192110042},"toponymName":"Pedrou\u00e7os","countryId":"2264397","fcl":"P","population":0,"countryCode":"PT","name":"Pedrou\u00e7os","fclName":"city, village,...","countryName":"Portugal","fcodeName":"populated place","adminName1":"Lisboa","lat":"38.7","fcode":"PPL"},{"adminCode1":"14","lng":"-9.17274","geonameId":2265324,"bbox":{"east":-9.16120179872,"south":38.764016351249,"north":38.782003648751,"west":-9.18427620128},"toponymName":"Pa\u00e7o do Lumiar","countryId":"2264397","fcl":"P","population":0,"countryCode":"PT","name":"Pa\u00e7o do Lumiar","fclName":"city, village,...","countryName":"Portugal","fcodeName":"populated place","adminName1":"Lisboa","lat":"38.77301","fcode":"PPL"},{"adminCode1":"14","lng":"-9.22699","geonameId":2265342,"bbox":{"east":-9.2154611105008,"south":38.712578351249,"north":38.730565648751,"west":-9.2385188894992},"toponymName":"Outorela","countryId":"2264397","fcl":"P","population":0,"countryCode":"PT","name":"Outorela","fclName":"city, village,...","countryName":"Portugal","fcodeName":"populated place","adminName1":"Lisboa","lat":"38.72157","fcode":"PPL"},{"adminCode1":"14","lng":"-9.46667","geonameId":2265460,"bbox":{"east":-9.455141289958,"south":38.691006351249,"north":38.708993648751,"west":-9.478192110042},"toponymName":"Oitavos","countryId":"2264397","fcl":"P","population":0,"countryCode":"PT","name":"Oitavos","fclName":"city, village,...","countryName":"Portugal","fcodeName":"populated place","adminName1":"Lisboa","lat":"38.7","fcode":"PPL"},{"adminCode1":"14","lng":"-9.43922","geonameId":2265639,"bbox":{"east":-9.4276874547874,"south":38.722835351249,"north":38.740822648751,"west":-9.4507485452126},"toponymName":"Murches","countryId":"2264397","fcl":"P","population":0,"countryCode":"PT","name":"Murches","fclName":"city, village,...","countryName":"Portugal","fcodeName":"populated place","adminName1":"Lisboa","lat":"38.73183","fcode":"PPL"},{"adminCode1":"14","lng":"-9.10165","geonameId":2266629,"bbox":{"east":-9.090116166534,"south":38.730812351249,"north":38.748799648751,"west":-9.113179833466},"toponymName":"Marvila","countryId":"2264397","fcl":"P","population":0,"countryCode":"PT","name":"Marvila","fclName":"city, village,...","countryName":"Portugal","fcodeName":"populated place","adminName1":"Lisboa","lat":"38.73981","fcode":"PPL"},{"adminCode1":"14","lng":"-9.28368","geonameId":2266948,"bbox":{"east":-9.2721458692394,"south":38.720268351249,"north":38.738255648751,"west":-9.2952061307606},"toponymName":"Luceia","countryId":"2264397","fcl":"P","population":0,"countryCode":"PT","name":"Luceia","fclName":"city, village,...","countryName":"Portugal","fcodeName":"populated place","adminName1":"Lisboa","lat":"38.72926","fcode":"PPL"},{"adminCode1":"14","lng":"-9.32875","geonameId":2267004,"bbox":{"east":-9.3172319596615,"south":38.676301351249,"north":38.694288648751,"west":-9.3402780403385},"toponymName":"Lombos","countryId":"2264397","fcl":"P","population":0,"countryCode":"PT","name":"Lombos","fclName":"city, village,...","countryName":"Portugal","fcodeName":"populated place","adminName1":"Lisboa","lat":"38.6853","fcode":"PPL"},{"adminCode1":"14","lng":"-9.37281","geonameId":2267048,"bbox":{"east":-9.3612863977487,"south":38.704600351249,"north":38.722587648751,"west":-9.3843416022513},"toponymName":"Livramento","countryId":"2264397","fcl":"P","population":0,"countryCode":"PT","name":"Livramento","fclName":"city, village,...","countryName":"Portugal","fcodeName":"populated place","adminName1":"Lisboa","lat":"38.71359","fcode":"PPL"},{"adminCode1":"14","lng":"-9.26073","geonameId":2267068,"bbox":{"east":-9.2492047990436,"south":38.708311351249,"north":38.726298648751,"west":-9.2722612009564},"toponymName":"Linda-a-Pastora","countryId":"2264397","fcl":"P","population":0,"countryCode":"PT","name":"Linda-a-Pastora","fclName":"city, village,...","countryName":"Portugal","fcodeName":"populated place","adminName1":"Lisboa","lat":"38.71731","fcode":"PPL"},{"adminCode1":"14","lng":"-9.29912","geonameId":2267096,"bbox":{"east":-9.2875867899688,"south":38.720759351249,"north":38.738746648751,"west":-9.3106472100312},"toponymName":"Lei\u00e3o","countryId":"2264397","fcl":"P","population":0,"countryCode":"PT","name":"Lei\u00e3o","fclName":"city, village,...","countryName":"Portugal","fcodeName":"populated place","adminName1":"Lisboa","lat":"38.72975","fcode":"PPL"},{"adminCode1":"14","lng":"-9.26667","geonameId":2267113,"bbox":{"east":-9.255141289958,"south":38.691006351249,"north":38.708993648751,"west":-9.278192110042},"toponymName":"Laveiras","countryId":"2264397","fcl":"P","population":0,"countryCode":"PT","name":"Laveiras","fclName":"city, village,...","countryName":"Portugal","fcodeName":"populated place","adminName1":"Lisboa","lat":"38.7","fcode":"PPL"},{"adminCode1":"14","lng":"-9.28333","geonameId":2268146,"bbox":{"east":-9.2717998194981,"south":38.741006351248,"north":38.758993648752,"west":-9.2948667805019},"toponymName":"Fontainhas","countryId":"2264397","fcl":"P","population":0,"countryCode":"PT","name":"Fontainhas","fclName":"city, village,...","countryName":"Portugal","fcodeName":"populated place","adminName1":"Lisboa","lat":"38.75","fcode":"PPL"},{"adminCode1":"14","lng":"-9.25162","geonameId":2268791,"bbox":{"east":-9.2400918150972,"south":38.695812351249,"north":38.713799648751,"west":-9.2631441849028},"toponymName":"Cruz Quebrada","countryId":"2264397","fcl":"P","population":0,"countryCode":"PT","name":"Cruz Quebrada","fclName":"city, village,...","countryName":"Portugal","fcodeName":"populated place","adminName1":"Lisboa","lat":"38.70481","fcode":"PPL"},{"adminCode1":"14","lng":"-9.43458","geonameId":2269185,"bbox":{"east":-9.4230470496057,"south":38.706758351249,"north":38.724745648751,"west":-9.4461029503943},"toponymName":"Cobre","countryId":"2264397","fcl":"P","population":0,"countryCode":"PT","name":"Cobre","fclName":"city, village,...","countryName":"Portugal","fcodeName":"populated place","adminName1":"Lisboa","lat":"38.71575","fcode":"PPL"},{"adminCode1":"14","lng":"-9.45397","geonameId":2269281,"bbox":{"east":-9.4424421011627,"south":38.725025351249,"north":38.743012648751,"west":-9.4655038988373},"toponymName":"Charneca","countryId":"2264397","fcl":"P","population":0,"countryCode":"PT","name":"Charneca","fclName":"city, village,...","countryName":"Portugal","fcodeName":"populated place","adminName1":"Lisboa","lat":"38.73402","fcode":"PPL"},{"adminCode1":"14","lng":"-9.21248","geonameId":2269580,"bbox":{"east":-9.2009548006569,"south":38.708301351249,"north":38.726288648751,"west":-9.2240111993431},"toponymName":"Caselas","countryId":"2264397","fcl":"P","population":0,"countryCode":"PT","name":"Caselas","fclName":"city, village,...","countryName":"Portugal","fcodeName":"populated place","adminName1":"Lisboa","lat":"38.7173","fcode":"PPL"},{"adminCode1":"14","lng":"-9.43484","geonameId":2261481,"bbox":{"east":-9.4233044903069,"south":38.734998351249,"north":38.752985648751,"west":-9.4463695096931},"toponymName":"Zambujeiro","countryId":"2264397","fcl":"P","population":0,"countryCode":"PT","name":"Zambujeiro","fclName":"city, village,...","countryName":"Portugal","fcodeName":"populated place","adminName1":"Lisboa","lat":"38.74399","fcode":"PPL"},{"adminCode1":"14","lng":"-9.34797","geonameId":2261507,"bbox":{"east":-9.3364467570489,"south":38.696172351249,"north":38.714159648751,"west":-9.3594992429511},"toponymName":"Zambujal","countryId":"2264397","fcl":"P","population":0,"countryCode":"PT","name":"Zambujal","fclName":"city, village,...","countryName":"Portugal","fcodeName":"populated place","adminName1":"Lisboa","lat":"38.70517","fcode":"PPL"},{"adminCode1":"14","lng":"-9.10996","geonameId":2261523,"bbox":{"east":-9.0984289930638,"south":38.719501351249,"north":38.737488648751,"west":-9.1214890069362},"toponymName":"Xabregas","countryId":"2264397","fcl":"P","population":0,"countryCode":"PT","name":"Xabregas","fclName":"city, village,...","countryName":"Portugal","fcodeName":"populated place","adminName1":"Lisboa","lat":"38.7285","fcode":"PPL"},{"adminCode1":"14","lng":"-9.3","geonameId":2261636,"bbox":{"east":-9.2884719020305,"south":38.707673051249,"north":38.725660348751,"west":-9.3115280979695},"toponymName":"Vila Fria","countryId":"2264397","fcl":"P","population":0,"countryCode":"PT","name":"Vila Fria","fclName":"city, village,...","countryName":"Portugal","fcodeName":"populated place","adminName1":"Lisboa","lat":"38.71667","fcode":"PPL"},{"adminCode1":"14","lng":"-9.12875","geonameId":2261641,"bbox":{"east":-9.1172178635997,"south":38.763615351248,"north":38.781602648752,"west":-9.1402921364003},"toponymName":"Vila Formosa","countryId":"2264397","fcl":"P","population":0,"countryCode":"PT","name":"Vila Formosa","fclName":"city, village,...","countryName":"Portugal","fcodeName":"populated place","adminName1":"Lisboa","lat":"38.77261","fcode":"PPL"},{"adminCode1":"14","lng":"-9.26549","geonameId":2261956,"bbox":{"east":-9.2539589427451,"south":38.726006351249,"north":38.743993648751,"west":-9.2770210572549},"toponymName":"Valejas","countryId":"2264397","fcl":"P","population":0,"countryCode":"PT","name":"Valejas","fclName":"city, village,...","countryName":"Portugal","fcodeName":"populated place","adminName1":"Lisboa","lat":"38.735","fcode":"PPL"},{"adminCode1":"14","lng":"-9.33927","geonameId":2262542,"bbox":{"east":-9.3277355784033,"south":38.728262351249,"north":38.746249648751,"west":-9.3507984215967},"toponymName":"Trajouce","countryId":"2264397","fcl":"P","population":0,"countryCode":"PT","name":"Trajouce","fclName":"city, village,...","countryName":"Portugal","fcodeName":"populated place","adminName1":"Lisboa","lat":"38.73726","fcode":"PPL"},{"adminCode1":"14","lng":"-9.28171","geonameId":2262699,"bbox":{"east":-9.2701812802696,"south":38.736298351249,"north":38.754285648751,"west":-9.2932467197304},"toponymName":"Tercena","countryId":"2264397","fcl":"P","population":0,"countryCode":"PT","name":"Tercena","fclName":"city, village,...","countryName":"Portugal","fcodeName":"populated place","adminName1":"Lisboa","lat":"38.74529","fcode":"PPL"},{"adminCode1":"14","lng":"-9.31201","geonameId":2262779,"bbox":{"east":-9.3004766575413,"south":38.727772351248,"north":38.745759648752,"west":-9.3235393424587},"toponymName":"Talaide","countryId":"2264397","fcl":"P","population":0,"countryCode":"PT","name":"Talaide","fclName":"city, village,...","countryName":"Portugal","fcodeName":"populated place","adminName1":"Lisboa","lat":"38.73677","fcode":"PPL"},{"adminCode1":"14","lng":"-9.36091","geonameId":2270121,"bbox":{"east":-9.3493814939344,"south":38.728785351249,"north":38.746772648751,"west":-9.3724445060656},"toponymName":"Carrascal","countryId":"2264397","fcl":"P","population":0,"countryCode":"PT","name":"Carrascal","fclName":"city, village,...","countryName":"Portugal","fcodeName":"populated place","adminName1":"Lisboa","lat":"38.73778","fcode":"PPL"},{"adminCode1":"14","lng":"-9.18333","geonameId":2270148,"bbox":{"east":-9.1717971248742,"south":38.757673051249,"north":38.775660348751,"west":-9.1948694751258},"toponymName":"Carnide","countryId":"2264397","fcl":"P","population":0,"countryCode":"PT","name":"Carnide","fclName":"city, village,...","countryName":"Portugal","fcodeName":"populated place","adminName1":"Lisboa","lat":"38.76667","fcode":"PPL"},{"adminCode1":"14","lng":"-9.20694","geonameId":2270215,"bbox":{"east":-9.1954105432542,"south":38.703698351249,"north":38.721685648751,"west":-9.2184654567458},"toponymName":"Caram\u00e3o","countryId":"2264397","fcl":"P","population":0,"countryCode":"PT","name":"Caram\u00e3o","fclName":"city, village,...","countryName":"Portugal","fcodeName":"populated place","adminName1":"Lisboa","lat":"38.71269","fcode":"PPL"},{"adminCode1":"14","lng":"-9.35947","geonameId":2270228,"bbox":{"east":-9.3479466192309,"south":38.703227351249,"north":38.721214648751,"west":-9.3710013807691},"toponymName":"Caparide","countryId":"2264397","fcl":"P","population":0,"countryCode":"PT","name":"Caparide","fclName":"city, village,...","countryName":"Portugal","fcodeName":"populated place","adminName1":"Lisboa","lat":"38.71222","fcode":"PPL"},{"adminCode1":"14","lng":"-9.16651","geonameId":2270339,"bbox":{"east":-9.154975758549,"south":38.745714351249,"north":38.763701648751,"west":-9.178044241451},"toponymName":"Campo Grande","countryId":"2264397","fcl":"P","population":0,"countryCode":"PT","name":"Campo Grande","fclName":"city, village,...","countryName":"Portugal","fcodeName":"populated place","adminName1":"Lisboa","lat":"38.75471","fcode":"PPL"},{"adminCode1":"14","lng":"-9.3101","geonameId":2270485,"bbox":{"east":-9.2985685303224,"south":38.697578351249,"north":38.715565648751,"west":-9.3216214696776},"toponymName":"Cacilhas","countryId":"2264397","fcl":"P","population":0,"countryCode":"PT","name":"Cacilhas","fclName":"city, village,...","countryName":"Portugal","fcodeName":"populated place","adminName1":"Lisboa","lat":"38.70657","fcode":"PPL"},{"adminCode1":"14","lng":"-9.42281","geonameId":2270519,"bbox":{"east":-9.4112744654446,"south":38.722769351249,"north":38.740756648751,"west":-9.4343355345554},"toponymName":"Cabreiro","countryId":"2264397","fcl":"P","population":0,"countryCode":"PT","name":"Cabreiro","fclName":"city, village,...","countryName":"Portugal","fcodeName":"populated place","adminName1":"Lisboa","lat":"38.73176","fcode":"PPL"},{"adminCode1":"14","lng":"-9.09671","geonameId":2270530,"bbox":{"east":-9.0851705430651,"south":38.747047351249,"north":38.765034648751,"west":-9.1082394569349},"toponymName":"Cabo Ruivo","countryId":"2264397","fcl":"P","population":0,"countryCode":"PT","name":"Cabo Ruivo","fclName":"city, village,...","countryName":"Portugal","fcodeName":"populated place","adminName1":"Lisboa","lat":"38.75604","fcode":"PPL"},{"adminCode1":"14","lng":"-9.2","geonameId":2270629,"bbox":{"east":-9.1884692118885,"south":38.724339651249,"north":38.742326948751,"west":-9.2115307881115},"toponymName":"Buraca","countryId":"2264397","fcl":"P","population":0,"countryCode":"PT","name":"Buraca","fclName":"city, village,...","countryName":"Portugal","fcodeName":"populated place","adminName1":"Lisboa","lat":"38.73333","fcode":"PPL"},{"adminCode1":"14","lng":"-9.47172","geonameId":2270854,"bbox":{"east":-9.4601838637041,"south":38.751249351249,"north":38.769236648751,"west":-9.4832541362959},"toponymName":"Biscaia","countryId":"2264397","fcl":"P","population":0,"countryCode":"PT","name":"Biscaia","fclName":"city, village,...","countryName":"Portugal","fcodeName":"populated place","adminName1":"Lisboa","lat":"38.76024","fcode":"PPL"},{"adminCode1":"14","lng":"-9.44691","geonameId":2270856,"bbox":{"east":-9.435382115592,"south":38.706349351249,"north":38.724336648751,"west":-9.4584378844081},"toponymName":"Birre","countryId":"2264397","fcl":"P","population":0,"countryCode":"PT","name":"Birre","fclName":"city, village,...","countryName":"Portugal","fcodeName":"populated place","adminName1":"Lisboa","lat":"38.71534","fcode":"PPL"},{"adminCode1":"14","lng":"-9.38379","geonameId":2270874,"bbox":{"east":-9.3722607806056,"south":38.720817351249,"north":38.738804648751,"west":-9.3953212193944},"toponymName":"Bicesse","countryId":"2264397","fcl":"P","population":0,"countryCode":"PT","name":"Bicesse","fclName":"city, village,...","countryName":"Portugal","fcodeName":"populated place","adminName1":"Lisboa","lat":"38.72981","fcode":"PPL"},{"adminCode1":"14","lng":"-9.2","geonameId":2270962,"bbox":{"east":-9.1884665194981,"south":38.741006351248,"north":38.758993648752,"west":-9.2115334805019},"toponymName":"Benfica","countryId":"2264397","fcl":"P","population":0,"countryCode":"PT","name":"Benfica","fclName":"city, village,...","countryName":"Portugal","fcodeName":"populated place","adminName1":"Lisboa","lat":"38.75","fcode":"PPL"},{"adminCode1":"14","lng":"-9.40936","geonameId":2271238,"bbox":{"east":-9.397831221369,"south":38.711891351249,"north":38.729878648751,"west":-9.420888778631},"toponymName":"Bairro da Alegria","countryId":"2264397","fcl":"P","population":0,"countryCode":"PT","name":"Bairro da Alegria","fclName":"city, village,...","countryName":"Portugal","fcodeName":"populated place","adminName1":"Lisboa","lat":"38.72089","fcode":"PPL"},{"adminCode1":"14","lng":"-9.45692","geonameId":2271533,"bbox":{"east":-9.4453812659225,"south":38.742575351249,"north":38.760562648751,"west":-9.4684487340775},"toponymName":"Arneiro","countryId":"2264397","fcl":"P","population":0,"countryCode":"PT","name":"Arneiro","fclName":"city, village,...","countryName":"Portugal","fcodeName":"populated place","adminName1":"Lisboa","lat":"38.75157","fcode":"PPL"},